business_id,name,address,city,categories,stars,review_count,latitude,longitude
Pns2l4eNsfO8kk83dixA6A,"Abby Rappoport, LAC, CMQ","1616 Chapala St, Ste 2",Santa Barbara,"Doctors, Traditional Chinese Medicine, Naturopathic/Holistic, Acupuncture, Health & Medical, Nutritionists",5.0,7,34.4266787,-119.7111968
mpf3x-BjTdTEA3yCZrAYPw,The UPS Store,87 Grasso Plaza Shopping Center,Affton,"Shipping Centers, Local Services, Notaries, Mailbox Centers, Printing Services",3.0,15,38.551126,-90.335695
tUFrWirKiKi_TAnsVWINQQ,Target,5255 E Broadway Blvd,Tucson,"Department Stores, Shopping, Fashion, Home & Garden, Electronics, Furniture Stores",3.5,22,32.223236,-110.880452
MTSW4McQd7CbVtyjqoe9mw,St Honore Pastries,935 Race St,Philadelphia,"Restaurants, Food, Bubble Tea, Coffee & Tea, Bakeries",4.0,80,39.9555052,-75.1555641
mWMc6_wTdE0EUBKIGXDVfA,Perkiomen Valley Brewery,101 Walnut St,Green Lane,"Brewpubs, Breweries, Food",4.5,13,40.3381827,-75.4716585
CF33F8-E6oudUQ46HnavjQ,Sonic Drive-In,615 S Main St,Ashland City,"Burgers, Fast Food, Sandwiches, Food, Ice Cream & Frozen Yogurt, Restaurants",2.0,6,36.269593,-87.058943
n_0UpQx1hsNbnPUSlodU8w,Famous Footwear,"8522 Eager Road, Dierbergs Brentwood Point",Brentwood,"Sporting Goods, Fashion, Shoe Stores, Shopping, Sports Wear, Accessories",2.5,13,38.627695,-90.340465
qkRM_2X51Yqxk3btlwAQIg,Temple Beth-El,400 Pasadena Ave S,St. Petersburg,"Synagogues, Religious Organizations",3.5,5,27.76659,-82.732983
k0hlBqXX-Bt0vf1op7Jr1w,Tsevi's Pub And Grill,8025 Mackenzie Rd,Affton,"Pubs, Restaurants, Italian, Bars, American (Traditional), Nightlife, Greek",3.0,19,38.5651648,-90.3210868
bBDDEgkFA1Otx9Lfe7BZUQ,Sonic Drive-In,2312 Dickerson Pike,Nashville,"Ice Cream & Frozen Yogurt, Fast Food, Burgers, Restaurants, Food",1.5,10,36.2081024,-86.7681696
UJsufbvfyfONHeWdvAHKjA,Marshalls,21705 Village Lakes Sc Dr,Land O' Lakes,"Department Stores, Shopping, Fashion",3.5,6,28.1904587953,-82.4573802199
eEOYSgkmpB90uNA7lDOMRA,Vietnamese Food Truck,,Tampa Bay,"Vietnamese, Food, Restaurants, Food Trucks",4.0,10,27.9552692,-82.4563199
il_Ro8jwPlHresjw9EGmBg,Denny's,8901 US 31 S,Indianapolis,"American (Traditional), Restaurants, Diners, Breakfast & Brunch",2.5,28,39.6371332838,-86.127217412
jaxMSoInw8Poo3XeMJt8lQ,Adams Dental,15 N Missouri Ave,Clearwater,"General Dentistry, Dentists, Health & Medical, Cosmetic Dentists",5.0,10,27.966235,-82.787412
0bPLkL0QhhPO5kt1_EXmNQ,Zio's Italian Market,2575 E Bay Dr,Largo,"Food, Delis, Italian, Bakeries, Restaurants",4.5,100,27.9161159,-82.7604608
MUTTqe8uqyMdBl186RmNeA,Tuna Bar,205 Race St,Philadelphia,"Sushi Bars, Restaurants, Japanese",4.0,245,39.953949,-75.1432262
rBmpy_Y1UbBx8ggHlyb7hA,Arizona Truck Outfitters,625 N Stone Ave,Tucson,"Automotive, Auto Parts & Supplies, Auto Customization",4.5,10,32.2298719,-110.9723419
M0XSSHqrASOnhgbWDJIpQA,Herb Import Co,712 Adams St,New Orleans,"Vape Shops, Tobacco Shops, Personal Shopping, Vitamins & Supplements, Shopping",4.0,5,29.9414679565,-90.129952757
8wGISYjYkE2tSqn3cDMu8A,Nifty Car Rental,1241 Airline Dr,Kenner,"Automotive, Car Rental, Hotels & Travel, Truck Rental",3.5,14,29.981183,-90.2540123
ROeacJQwBeh05Rqg7F6TCg,BAP,1224 South St,Philadelphia,"Korean, Restaurants",4.5,205,39.943223,-75.162568
WKMJwqnfZKsAae75RMP6jA,Roast Coffeehouse and Wine Bar,10359 104 Street NW,Edmonton,"Coffee & Tea, Food, Cafes, Bars, Wine Bars, Restaurants, Nightlife",4.0,40,53.5460453,-113.4991693
qhDdDeI3K4jy2KyzwFN53w,Barnes & Noble Booksellers,8675 River Crossing Blvd,Indianapolis,"Shopping, Books, Mags, Music & Video, Bookstores",4.0,38,39.91382,-86.105739
kfNv-JZpuN6TVNSO6hHdkw,Hibachi Express,6625 E 82nd St,Indianapolis,"Steakhouses, Asian Fusion, Restaurants",4.0,20,39.9043203184,-86.0530799
9OG5YkX1g2GReZM0AskizA,Romano's Macaroni Grill,5505 S Virginia St,Reno,"Restaurants, Italian",2.5,339,39.4761165,-119.7893392
4iRzR7OaS-QaSXuvYxEGKA,Super Dog,1160 Gallatin Pike S,Nashville,"Hot Dogs, Restaurants",4.0,6,36.2485696,-86.7199857
PSo_C1Sfa13JHjzVNW6ziQ,Indian Walk Veterinary Center,662 Durham Rd,Newtown,"Pet Services, Pet Groomers, Pets, Veterinarians",5.0,15,40.2734926,-74.987496
noByYNtDLQAra9ccqxdfDw,H&M,827-833 State St,Santa Barbara,"Women's Clothing, Accessories, Children's Clothing, Men's Clothing, Adult, Shopping, Fashion",3.0,24,34.4202089255,-119.7004597389
tMkwHmWFUEXrC9ZduonpTg,The Green Pheasant,215 1st Ave S,Nashville,"Restaurants, Japanese, Seafood",4.0,161,36.1598858,-86.7731974
QdN72BWoyFypdGJhhI5r7g,Bar One,767 S 9th St,Philadelphia,"Cocktail Bars, Bars, Italian, Nightlife, Restaurants",4.0,65,39.9398245705,-75.1574465632
sqSqqLy0sN8n2IZrAbzidQ,Domino's Pizza,3001 Highway 31 W,White House,"Pizza, Chicken Wings, Sandwiches, Restaurants",3.5,8,36.4647467622,-86.6591868908
fvWn8oXXwbj2l79cochZyw,Altitude Trampoline Park - Boise,1301 N Milwaukee St,Boise,"Trampoline Parks, Active Life",5.0,30,43.6167635,-116.2853821
Mjboz24M9NlBeiOJKLEd_Q,DeSandro on Main,4105 Main St,Philadelphia,"Pizza, Restaurants, Salad, Soup",3.0,41,40.0224662,-75.218314
8sshLb4UU7emeUDvtJWnpA,DanceLine,30 W Lancaster Ave,Paoli,"Dance Wear, Sports Wear, Children's Clothing, Arts & Entertainment, Social Clubs, Performing Arts, Sporting Goods, Shoe Stores, Fashion, Shopping",4.5,11,40.0415845065,-75.4849526577
kV_Q1oqis8Qli8dUoGpTyQ,Ardmore Pizza,10 Rittenhouse Pl,Ardmore,"Pizza, Restaurants",3.5,109,40.0067071,-75.289671
w_AMNoI1iG9eay7ncmc67w,River 127,100 Iberville St,New Orleans,"Event Planning & Services, Hotels, Hotels & Travel",3.0,12,29.951359,-90.0646715
aPNXGTDkf-4bjhyMBQxqpQ,Craft Hall,901 N Delaware Ave,Philadelphia,"Eatertainment, Arts & Entertainment, Brewpubs, American (Traditional), Bakeries, Breweries, Food, Restaurants",3.5,65,39.9625821,-75.1356571
2xVsWBNFwZOxIOdd9Mwnww,Cheeseburger In Paradise,116 N Pottstown Pike,Exton,"Restaurants, Burgers",2.5,20,40.029962,-75.630607
mGFsPRHdE6SMV1gYQ6GzgQ,T-Mobile,4735 Concord Pike,Wilmington,"Mobile Phones, Telecommunications, Electronics, Mobile Phone Accessories, Local Services, Shopping, IT Services & Computer Repair",2.0,6,39.822176,-75.546007
LcAozWCMLGjwRbokaJAKMg,Edwardsville Children's Museum,722 Holyoake Rd,Edwardsville,"Museums, Kids Activities, Arts & Entertainment, Education, Active Life, Playgrounds, Children's Museums",4.5,12,38.8043945,-89.9497332
fSCNwMtNNQY9QT69Cj9fiA,Sierra Pro Events,,Sparks,"Musicians, DJs, Karaoke, Event Planning & Services, Nightlife",5.0,7,39.5401545,-119.7483949
x1mhq4IpWctQOBM06dU8vg,Diamond Hair Company,5324 W 16th St,Indianapolis,"Hair Salons, Hair Extensions, Beauty & Spas, Wigs, Shopping",1.5,25,39.7874644177,-86.2514209
ljxNT9p0y7YMPx0fcNBGig,Tony's Restaurant & 3rd Street Cafe,312 Piasa St,Alton,"Restaurants, Specialty Food, Steakhouses, Food, Italian, Pizza, Pasta Shops",3.0,94,38.896563,-90.1862032987
lwItZ1Ck3KtpCgG4CPFmpQ,Stomel Elliot Attorney-At-Law,"532 Rte 70 W, Fl 2",Cherry Hill,"DUI Law, Professional Services, Lawyers, Criminal Defense Law",5.0,5,39.915478,-75.016973
Kq51_lGAgAigqmENITTr-A,Bala Better Health,"2 Bala Plz, Ste PL-11",Bala Cynwyd,"Health & Medical, Beauty & Spas, Laser Hair Removal, Doctors, Hair Removal, Chiropractors, Weight Loss Centers, Sports Medicine, Medical Spas, Skin Care",4.0,13,40.00687,-75.217262
mglME3E7esPSpIF5bias8w,Pier 1,1014 Baltimore Pike,Springfield,"Fashion, Shopping, Department Stores, Furniture Stores, Candle Stores, Home & Garden, Home Decor",2.5,8,39.9152704301,-75.3426812589
wghnIlMb_i5U46HMBGx9ig,China Dragon Restaurant,"1625 W Valencia Rd, Ste 101-103",Tucson,"Restaurants, Chinese",3.0,23,32.1323047,-110.9999851
JX4tUpd09YFchLBuI43lGw,Naked Cyber Cafe & Espresso Bar,10303  108 Street NW,Edmonton,"Arts & Entertainment, Music Venues, Internet Service Providers, Nightlife, Food, Coffee & Tea, Jazz & Blues, Professional Services, Internet Cafes",4.0,12,53.5446819,-113.506589
lk9IwjZXqUMqqOhM774DtQ,Caviar & Bananas,2031 Broadway,Nashville,"Coffee & Tea, Restaurants, Wine Bars, Bars, Nightlife, American (Traditional), Event Planning & Services, Food, Caterers, Breakfast & Brunch, Cafes, Diners",3.5,159,36.1483712,-86.7988947
bCBPXIVfVzBZBEpFu29dcg,All In Shipping,5343 Belleville Crossing St,Belleville,"Shipping Centers, Local Services",5.0,5,38.5175856,-90.0219285
ABxoFuzZy5mqQ8C5FJJajQ,Core de Roma,201 Jefferson St,Bala Cynwyd,"Restaurants, Italian",5.0,12,40.0283575,-75.2380841
Hwt3_mOEmU-t--ywcemnMg,Gold's Gym,203 - 38th Ave N,St. Petersburg,"Active Life, Fitness & Instruction, Trainers, Gyms, Yoga",3.0,17,27.8083394,-82.6361678
REwfwz-_-CMQ7Np5UVi9Qg,Jennie Deckert,,Carmel,"Real Estate Agents, Home Services, Real Estate",5.0,7,39.9693,-86.1650024
5BmQX4UVJY19mMtafMg7JA,Breadland Organic Whole Grain Bakery,"11642 104 Avenue, Unit 642",Edmonton,"Specialty Food, Bakeries, Food, Health Markets",4.0,23,53.547205,-113.522448
cVBxfMC4lp3DnocjYA3FHQ,Paws The Cat Cafe,10588 109 Street,Edmonton,"Coffee & Tea, Cafes, Pets, Restaurants, Pet Adoption, Food",5.0,20,53.5496333,-113.5087799
0qNpTGTcqPwOLi2hADx4Xw,Charlie's Market,2815 E Sligh Ave,Tampa,"Food, Grocery, Convenience Stores",3.0,9,28.0103596,-82.4300416
xM6LoUcnpDpMBzXs_7dXAg,Fairfield Inn & Suites,719 E Baltimore Pike,Kennett Square,"Hotels, Hotels & Travel, Event Planning & Services",3.0,37,39.8562475317,-75.6946098804
txyXRytGjwOXvS8s4sc-WA,Smoothie King,1070 E Tucson Marketplace Blvd,Tucson,"Vitamins & Supplements, Ice Cream & Frozen Yogurt, Food, Juice Bars & Smoothies, Shopping",3.0,29,32.186794,-110.954765
DQ7PyYlp2bX96WZa7TcaWQ,LensCrafters,"1150 Plymouth Meeting Mall, Ste 2230",Plymouth Meeting,"Ophthalmologists, Eyewear & Opticians, Health & Medical, Shopping, Doctors, Optometrists",2.5,8,40.1161788,-75.2825254
uI9XODGY_2_ieTE6xJ0myw,Roman Forum,10440 N Dale Mabry Hwy,Tampa,"Restaurants, American (New), Italian",4.0,23,28.0462028173,-82.5050526736
JgpnXv_0XhV3SfbfB50nxw,Joe's Pizza,2038 N Dale Mabry Hwy,Tampa,"Restaurants, Pizza",4.0,35,27.9605142,-82.506127
Si6LXSR9gvAbmgO5DzV2cw,Lafitte's Landing Seafood House,1700 Lapalco Blvd,Harvey,"Restaurants, Soup, Seafood, Burgers",2.5,38,29.8754822266,-90.04938
seKihQKpGGnCeLuELRQPSQ,Twin Peaks,6880 E 82nd St,Indianapolis,"Sports Bars, American (New), American (Traditional), Nightlife, Bars, Restaurants",3.5,257,39.9062952,-86.0474634
L_TT0BFmFwORAMaA83K54A,Village Tap Room,838 Broad Ripple Ave,Indianapolis,"Gastropubs, Cocktail Bars, Beer Bar, Bars, Restaurants, Nightlife",2.5,23,39.8699114,-86.1435773
mjWvAkNqoA6Y5P03sDSzfA,Educational Outfitters,"3904 W Hillsborough Ave, Ste D",Tampa,"Uniforms, Shopping",2.0,10,27.9954501644,-82.5081187
qfWJmJ0g96eM_fWma3ja0g,Doc Magrogan's Oyster House - West Chester,117 E Gay St,West Chester,"Seafood, Restaurants, Bars, Nightlife, Cocktail Bars, American (New), Pubs",3.0,114,39.9615417,-75.6036042
uczmbBk5O3tYhGue13dCDg,New Orleans Spirit Tours,723 St Peter St,New Orleans,"Hotels & Travel, Tours, Local Flavor",4.0,38,29.958431,-90.065173
n7AQvGvNHlmun3kqXeBKVQ,Roy's Appliance Service,,Meridian,"Local Services, Appliances & Repair",5.0,5,43.6434944,-116.4360004
eYxGFkxo6m3SYGVTh5m2nQ,Big Boyz Toyz Motorcycle Rentals,4158 E Grant Rd,Tucson,"Towing, Hotels & Travel, Automotive, Motorcycle Rental, Motorcycle Gear, Shopping",4.5,8,32.2503237,-110.9036553
lOP3HxdUTaq0eXhwR_KC-w,Sweet Things Chocolates,2288 W 86th St,Indianapolis,"Chocolatiers & Shops, Specialty Food, Candy Stores, Food",4.0,13,39.913292,-86.20083
KWA2qtdwVEkMpd5soSKaGA,Publix Super Market,12101 Little Rd,Hudson,"Food, Grocery",3.5,7,28.3326007,-82.6681066
gbN4RuUiiBxQ2GBFQ2p3Cw,Mr. Margarita,Truck Inn Way,Fernley,"Food Trucks, Food",5.0,7,39.5139704538,-119.8472038094
B2qqjCl_BNNnXvWWfpFiLA,Pottery Barn Kids,"4011 Hillsboro Pike, Ste 102",Nashville,"Shopping, Baby Gear & Furniture, Home Decor, Furniture Stores, Home & Garden",1.5,13,36.1036135,-86.8162678
7PDi_iyik3jraDAzWwwR4Q,Chase JP Morgan Bank Credit Card Services,,Wilmington,"Banks & Credit Unions, Financial Services",1.5,111,39.749361,-75.643331
8rb-3VYXE37IZix4yOdskw,Sharky's Sports Bar & Grill,820 N Black Horse Pike,Williamstown,"American (Traditional), Bars, Nightlife, Sports Bars, Restaurants",2.5,29,39.6968014,-74.9998214
9Rww8yE6Dm4dSMEq09nwXg,Holly Nails & Spa,9101 Belcher Rd,Pinellas Park,"Health & Medical, Personal Care Services, Beauty & Spas, Massage, Nail Salons",4.5,16,27.8553467494,-82.7363080904
aCDY7vXYMs54EbYuQScsnQ,39 North Taproom & Grill,110 S MacDade Blvd,Glenolden,"American (Traditional), Sports Bars, Restaurants, Bars, Nightlife, Steakhouses, Salad, Beer Bar",4.5,25,39.9036968861,-75.2949812448
-4dYswJy7SPcbcERvitmIg,Pathmark,3021 Grays Ferry Ave,Philadelphia,"Food, Grocery",2.5,34,39.9404026,-75.1932966
mFTaYsRDyeFaY2NDLfSaAA,River City Games,5203 99 Street NW,Edmonton,"Tabletop Games, Shopping, Sporting Goods",4.5,5,53.4893123495,-113.4855665582
x9K0RfZaT_zlw6DklBDzjw,Gavi Italian Restaurant,"7401 N La Cholla Blvd, Ste 146",Tucson,"Italian, Restaurants",3.5,9,32.221667,-110.925833
pJfh3Ct8iL58NZa8ta-a5w,Top Shelf Sports Lounge,3173 Cypress Ridge Blvd,Wesley Chapel,"Burgers, Sports Bars, Bars, Lounges, Restaurants, Salad, Wraps, Nightlife, American (New)",4.5,95,28.1962523878,-82.3806153496
cvP_vh_bOLbCY3eoY1Xw-A,Fishers Freedom Festival,1 Park Dr,Fishers,"Festivals, Arts & Entertainment",4.5,7,39.958734,-86.016966
7clCBgNbd-x2Wj96lZ6Mjw,Bier Brewery and Tap Room,5133 E 65th St,Indianapolis,"Food, Beer, Wine & Spirits, Breweries",4.5,139,39.8755319,-86.0828565
ppFCk9aQkM338Rgwpl2F5A,Wawa,3604 Chestnut St,Philadelphia,"Restaurants, Automotive, Delis, Gas Stations, Food, Coffee & Tea, Sandwiches, Convenience Stores",3.0,56,39.954573,-75.1948936
NZ_bFJma7brQUfln5h1UAg,Super Sushi Kyo Hin,2501 Mt Holly Rd 245,Burlington,"Restaurants, Japanese, Sushi Bars, Asian Fusion",3.5,6,40.0416285,-74.8258209
eMjnw_7wp-CscyNh6Lu0ZA,AM&PM Locksmith,8540 Bustleton Ave,Philadelphia,"Keys & Locksmiths, Home Services, Local Services",4.5,58,40.0723302045,-75.0484833435
IDtLPgUrqorrpqSLdfMhZQ,Helena Avenue Bakery,"131 Anacapa St, Ste C",Santa Barbara,"Food, Restaurants, Salad, Coffee & Tea, Breakfast & Brunch, Sandwiches, Bakeries",4.0,389,34.4144445,-119.6906718
sE6jSnvMts_MAn-b4OkMAw,K-9 Groom Room,820 Industrial Dr,Troy,"Pet Groomers, Pet Sitting, Pets, Pet Services",4.0,5,38.7162443,-89.8858296
YNjyv0gfOr2g8lbmUpTnKg,Copper Vine,1001 Poydras St,New Orleans,"Nightlife, Pubs, Event Planning & Services, Wine Bars, Bars, Gastropubs, Restaurants, Venues & Event Spaces",4.5,350,29.9506467229,-90.0744274301
LhpPSrulqVeTyJeK2xydvQ,Fresh Fruits & Salads,114 N 3rd St,Camden,"Juice Bars & Smoothies, Restaurants, Fruits & Veggies, Salad, Specialty Food, Food",4.5,6,39.9466899,-75.123327
oaboaRBUgGjbo2kfUIKDLQ,Mike's Ice Cream,129 2nd Ave N,Nashville,"Ice Cream & Frozen Yogurt, Coffee & Tea, Restaurants, Sandwiches, Food",4.5,593,36.1626492,-86.7759733
-ZXYcCyDjj1QimnJyGtYtg,Gilley's Antique Mall,5789 E US Hwy 40,Plainfield,"Home Decor, Shopping, Antiques, Books, Mags, Music & Video, Home & Garden",4.5,24,39.6949931921,-86.4230714504
nUqrF-h9S7myCcvNDecOvw,Iron Horse Auto Body,825 Cacique St,Santa Barbara,"Towing, Automotive, Body Shops",4.5,32,34.4196198,-119.6770319
vR9_bhoszcpXbB_APv6Xlw,James Dant,5624 E Washington St,Indianapolis,"Fashion, Shopping, Men's Clothing",5.0,31,39.7709745063,-86.0711718384
RK6-cJ9hj53RzOlCBmpT-g,Impasto,,Tampa,"Restaurants, Italian, Food Trucks, Food",5.0,5,27.890814,-82.5023464
ZM46RDLXaFNo_z6t-j_L4w,Absolutely Perfect Inc,1153 Byberry Rd,Bensalem,"Masonry/Concrete, Gardeners, Lawn Services, Tree Services, Landscape Architects, Home Services, Contractors, Landscaping",3.5,5,40.1131212,-74.9145975
pEm4xNCk8d0TF6A1gi-WDQ,TKO DJs,2650 S Big Bend,Maplewood,"Karaoke, DJs, Event Planning & Services, Party & Event Planning, Nightlife",3.5,17,38.6135761,-90.3223828
J_ksUDPpzPwfTGtI4zTRnQ,Riverview Room,600 Decatur St,New Orleans,"Event Planning & Services, Caterers, Party & Event Planning",4.5,7,29.9559253,-90.0629624
knQ4vIgx-r85kjlWVVjcpQ,Silver and Blue Outfitters,5191 Meadowood Mall Cir,Reno,"Sporting Goods, Sports Wear, Fashion, Restaurants, Fast Food, Sandwiches, Shopping",4.5,5,39.476518,-119.7840369
U2Tzy6J9aAAg9pzXsgdkvg,Premier Mortgage Resources,"3363 E Presidential Dr, Ste 200",Meridian,"Real Estate, Home Services, Financial Services, Mortgage Brokers, Mortgage Lenders",5.0,6,43.6141936,-116.3525001
1MeIwdbTnZOBFCKOrgaxuw,Ricardo's Italian Cafe,1931 Park Ave,Saint Louis,"American (New), Restaurants, Cafes, Italian, American (Traditional)",3.5,80,38.6172724,-90.2127841
8KMIT0NXu30Jz5Ojo5uxaw,Cornerstone Physical Therapy Associates,"1338 Bristol Pike, Ste 203",Bensalem,"Fitness & Instruction, Physical Therapy, Health & Medical, Active Life, Trainers",5.0,6,40.0722036,-74.9644197
jiLGdnf42eYftkqfU2ze1w,Saks Fifth Avenue,8701 Keystone Crossing,Indianapolis,"Women's Clothing, Men's Clothing, Accessories, Fashion, Jewelry, Department Stores, Shopping, Shoe Stores",3.5,29,39.913836,-86.1079073
EuRGgOwJ0g1vTj2R04j37Q,Crafty Crab,51 Ludwig Dr,Fairview Heights,"Seafood, Restaurants",2.5,14,38.6012982,-89.9896835
TLZ3-eDPLhUzfsWO4ad6Ug,Mahony's Po-Boys & Seafood,901 Iberville St,New Orleans,"Restaurants, Seafood, Cajun/Creole",4.0,382,29.9554151,-90.0700619
Dy91wdWkwtI_qgjAIZ0Niw,Taqueria Los Primos,3322 Old Capitol Trl,Wilmington,"Mexican, Restaurants",4.0,23,39.7320886,-75.6256733
2Bi3ef7c0CrLxHD_-yy_tw,AIM Mail Center,"12112 N Rancho Vistoso Blvd, Ste 150",Oro Valley,"Printing Services, Local Services, Shipping Centers, Couriers & Delivery Services, Notaries",3.0,13,32.4263727,-110.9592405
vje0KIiE7vtpx7JzmBx5LQ,The Pearl,163 107th Ave,Treasure Island,"Restaurants, French, Moroccan, Seafood, Mediterranean",4.0,129,27.7694046,-82.767317
2n9HHBxG7yAyAUwXXa49aw,Mighty Dustless,1256 Valley Hill Trl,Southampton,"Flooring, Handyman, Contractors, Home Services",4.0,5,40.1690207,-75.0093159
kK2i5Xyd9SOpF5pCFilbcg,Swat Pest Control,36 1/2 W Butler Ave,Chalfont,"Pest Control, Local Services",4.5,7,40.2844964,-75.207999
I6DCYks9lqZeoZiVzW7PmA,Its Sold Here,94 York Rd,Willow Grove,"Shopping, Auction Houses, Active Life",1.5,10,40.1428489,-75.1143791
VrGxoSNZfSiT-G4OqRRGIw,Sunset 44 Bistro,118 W Adams Ave,Saint Louis,"Bars, Lounges, American (New), Restaurants, Nightlife, Wine Bars",4.0,73,38.5832229,-90.4071872
H0NEOp4e3Zu598u6kO3y0g,America's Best Contacts & Eyeglasses,"79 Route 73, Ste 6, Coopers Plaza",Voorhees,"Eyewear & Opticians, Health & Medical, Shopping, Doctors, Optometrists, Ophthalmologists",3.5,17,39.824552,-74.929032
sB45WFgysT617bKWP_WJwA,Budweiser Brewery Experience,1200 Lynch St,Saint Louis,"Bars, Beer Gardens, Food, Breweries, Nightlife, Tours, Pubs, Wine Tours, Beer Tours, Hotels & Travel",4.5,605,38.6001971,-90.2135377
Fk1xpM7fjqEJ4paqk5ZFSg,Jamba Juice,"13601 W Mcmillan Rd, Ste 103",Boise,"Juice Bars & Smoothies, Food",3.0,19,43.6478323,-116.3520706
4dVrWc4Nhuw9apfk9BWEcA,Walmart Supercenter,41232 US Hwy 19 N,Tarpon Springs,"Grocery, Food, Shopping, Fashion, Drugstores, Department Stores, Discount Store, Electronics",2.0,29,28.1477204,-82.7425681
xfmkEGiIERBaBMLhw-dTCg,Walmart Vision & Glasses,1675 S Christopher Columbus Blvd,Philadelphia,"Eyewear & Opticians, Shopping",4.5,6,39.9198090864,-75.157802746
NTf_U8kYu9PAE2cZGJqtJg,Mirror Lake Community Library,280 5th St N,St. Petersburg,"Public Services & Government, Libraries",3.5,6,27.7747314,-82.6402836
kk_oEw1j3xQ-cJaAII8A0Q,Giant Food Store,1760 Dekalb Pike,Blue Bell,"Grocery, Food",3.0,29,40.1490655,-75.3060284
RXpADfOCZBGi82-CGxYdsw,Monogram Express,2109 Veterans Memorial Blvd,Metairie,"Flowers & Gifts, Embroidery & Crochet, Uniforms, Arts & Crafts, Home & Garden, Shopping, Gift Shops, Home Decor",4.5,8,30.0032388544,-90.146487573
qFX8IdomeBVhDPCSyz2aRg,Nashville Delivers,6591 Bluff Rd,Brentwood,"Couriers & Delivery Services, Local Services, Food, Food Delivery Services",3.5,7,36.002397,-86.7023814
bYjnX_J1bHZob10DoSFkqQ,Tinkle Belle Diaper Service,,Santa Barbara,"Parenting Classes, Maternity Wear, Fashion, Education, Specialty Schools, Local Services, Home Services, Laundry Services, Child Care & Day Care, Shopping, Baby Gear & Furniture",5.0,17,34.420334,-119.7107494
luGY5CJlb4CJ3LrBcSXMPA,Desert Design Center,4146 E Speedway Blvd,Tucson,"Furniture Stores, Shopping, Home & Garden",3.0,5,32.2358661,-110.9036755
VZzivJEbmHItOxNXJB3SpA,Subway,"330 Franklin Rd, Ste 900-d",Brentwood,"Sandwiches, Fast Food, Restaurants",2.5,14,36.0263631408,-86.7894728157
iPSPcprSnkLOuL1Ns8UZZA,Pete's Barber Shop,1209 N 29th St,Philadelphia,"Barbers, Beauty & Spas",4.5,12,39.9748805,-75.1832618
Q3kQYhkYxSRyYyeBgtk--A,Cook's Glass & Mirror,5703 W Morris St,Indianapolis,"Home Services, Glass & Mirrors, Door Sales/Installation",5.0,5,39.7500892,-86.2575225
wEfK2HIYNzkA1QYfUjHBaw,Leslie's,"7955 E Broadway Blvd, Ste 147",Tucson,"Hardware Stores, Home Services, Hot Tub & Pool, Pool & Hot Tub Service, Home & Garden, Shopping",2.5,15,32.2215422,-110.8221011
anLQj9AM8vjbcLSIE0iUgg,Papa Murphy's,"7250 North La Cholla, Suite 186",Tucson,"Pizza, Restaurants",4.0,22,32.3385723,-111.0107602
BVo_36t3z7vfXp3XGgJkOg,Sears Auto Center,4400 Veterans Memorial Blvd,Metairie,"Tires, Auto Repair, Oil Change Stations, Automotive",1.5,37,30.0042804,-90.1813221
P8brGDYVWjeW9GrKixH0yQ,Laser Spine Institute,5332 Avion Park Dr,Tampa,"Medical Centers, Doctors, Diagnostic Services, Health & Medical, Orthopedists, Spine Surgeons, Diagnostic Imaging",3.0,36,27.9586132,-82.5325949
Cdytv_YhJO0W0Ab8t2xLtg,Nipper's Pub,1205 Delsea Dr,Woodbury,"Nightlife, Chicken Wings, Pubs, Bars, American (Traditional), Restaurants",3.5,29,39.8444681,-75.1248703
3BJxm-HnvzdwD1zjmSbmyQ,Golden Chopstick Chinese Restaurant,1800 Spring Garden St,Philadelphia,"Restaurants, Chinese",3.0,137,39.963077709,-75.1680274529
FRYkg_JvsWU9xIXZsEZcVA,Altamura,2127 Prytania St,New Orleans,"Cocktail Bars, Italian, Nightlife, Seafood, Bars, Restaurants",3.5,27,29.9333877563,-90.079498291
9C2rpb56aQvW0ViZHK9sPw,Home Plate Sports Pub,4880 E 22nd St,Tucson,"Bars, Restaurants, Sports Bars, Nightlife",3.5,56,32.206315,-110.887843
k0yyD71s2F2eEKWRdkZ6jA,Cold Stone Creamery,"55 S Raceway Rd, Ste 400",Indianapolis,"Custom Cakes, Food, Desserts, Cupcakes, Ice Cream & Frozen Yogurt",3.0,19,39.7628744,-86.3257127
dM5OKNzk9AL2aiq-fV-SYg,Walmart Supercenter,400 W Northfield Dr,Brownsburg,"Discount Store, Department Stores, Food, Drugstores, Shopping, Grocery, Fashion, Mobile Phones",1.5,14,39.8591499,-86.3964221
qdYfHRsZdcz4Bun4f9Ijaw,Norristown Car Wash,10 E Germantown Pike,Norristown,"Car Wash, Auto Detailing, Automotive",2.0,8,40.140914,-75.3123146
Y6t4pnKm5LF8y5ChHA27ow,Meineke Car Care Center,2632 Land O Lakes Blvd,Land O Lakes,"Auto Repair, Automotive, Tires, Oil Change Stations",4.5,27,28.1961683557,-82.464425454
E_kLUlU60fzoZYAOxbH_3w,Pain Institute of Southern Arizona,"4582 N 1st Ave, Ste 170",Tucson,"Pain Management, Doctors, Health & Medical, Osteopathic Physicians",2.5,43,32.2891826,-110.9572299
txiXR1YfMyk-5S4ZzOVIhQ,Advance Financial,2845 Lebanon Pike,Nashville,"Title Loans, Installment Loans, Financial Services, Check Cashing/Pay-day Loans",2.0,7,36.1676590439,-86.6582959
0vCsslN-TYnDeOSNT4rIfg,Whole Foods Market,14598 Clay Terrace Blvd,Carmel,"Food, Organic Stores, Specialty Food, Health Markets, Grocery",3.5,44,39.999084,-86.131076
zFvqulgAYOpSG2t1v8AZ-w,The Cake Drip,1625 W Snow Cir,Tampa,"Desserts, Do-It-Yourself Food, Food, Patisserie/Cake Shop",4.0,40,27.935753,-82.4764699
SZU9c8V2GuREDN5KgyHFJw,Santa Barbara Shellfish Company,230 Stearns Wharf,Santa Barbara,"Live/Raw Food, Restaurants, Seafood, Beer Bar, Beer, Wine & Spirits, Bars, Food, Nightlife",4.0,2404,34.4087147,-119.6850187
GWGXTKR0Fhdvzf_isDqJug,"David Gower, Jr.  - Coldwell Banker Preferred","325 Chestnut St, Ste 1300",Philadelphia,"Real Estate, Home Services, Real Estate Agents",5.0,17,39.9490268625,-75.1471895999
-aeZuatjCDMV1X4gCTz9Ug,David Thomas Trailways,14005 McNulty Rd,Philadelphia,"Buses, Transportation, Bus Tours, Hotels & Travel, Travel Agents, Travel Services, Airport Shuttles, Tours, Public Transportation",4.5,6,40.1064092,-74.9739371
PYW8Buz8S8LpjIe6mZTAcw,Payless Liquors,954 N State Rd 135,Greenwood,"Food, Beer, Wine & Spirits",3.5,13,39.632279734,-86.158674289
Lx8ZYUJ_-3Aa8N821mN1WQ,ALM Kainan,"390 N McCarran Blvd, Ste B",Sparks,"Restaurants, Filipino",4.0,13,39.5371788,-119.7355322
M_THnNDHs29aylcK-JqS1A,Professional Healthcare of Pinellas,1839 Central Ave,Saint Petersburg,"Doctors, Internal Medicine, Health & Medical",1.5,6,27.7713566,-82.6586115
uCQqtYW_xc1EJRm7NyakdA,Yogurt Beach,2500 E 2nd St,Reno,"Food, Desserts",4.5,12,39.523904,-119.777525
9LLxOjEhLNcdx8i4lL6EUQ,Banfield Pet Hospital,7801 US 31 S,Indianapolis,"Pets, Veterinarians",2.0,10,39.6531323637,-86.135859
h-y5azB-VlQAT3m7Ff2g2Q,P's & Q's - Premium Quality,820 S St,Philadelphia,"Fashion, Shopping, Men's Clothing",5.0,16,39.942515,-75.156468
XHTgtBSwLnwRHzKSbea2Fg,Michael Kors,"8701 Keystone Crossing, Ste 28",Indianapolis,"Shopping, Fashion",4.0,6,39.914404,-86.107287
WYYdQDjx-DsCanlP0DpImQ,J Sushi,243 S 10th St,Philadelphia,"Seafood, Restaurants, Sushi Bars, Japanese",4.5,72,39.9470334,-75.1574339
U2htB9qk4hOXCdkccvvW0Q,D's Toys,"2616 Brill Rd, Ste A",Indianapolis,"Shopping, Books, Mags, Music & Video, Toy Stores, Hobby Shops, Comic Books",5.0,5,39.7291579,-86.1544775
aNtKyc2rr-uK5cqzY9TVQQ,Chipotle Mexican Grill,10160 Ulmerton Rd,Largo,"Mexican, Fast Food, Restaurants",3.0,19,27.894167,-82.779866
yv6kSKxDdZTsvHL25K-U2g,Nash Painting,471 Chestnut St,Nashville,"Painters, Home Services, Decks & Railing, Contractors, Pressure Washers",4.5,45,36.142642,-86.7708619
hUQ9Z7kQeabvhPOAQOVV1A,Rathbone Mansions,1244 Esplanade Ave,New Orleans,"Hotels, Hotels & Travel, Bed & Breakfast, Event Planning & Services",3.5,67,29.9670548,-90.0658282
t5tBd4p7BA7hNDitBUXxrw,Boise Therapeutic Massage Center,7153 W Emerald St,Boise,"Massage, Health & Medical, Medical Spas, Beauty & Spas",4.0,68,43.6119488,-116.2711098
oCFcoyGx2VRZ8MHXEsV8tQ,Giant Food Store,4801 Edgmont Ave,Brookhaven,"Food, Grocery",2.5,10,39.877374,-75.394007
FC6ef4rMMZKNov_-A9M6iQ,TD Bank Havertown,120 W Eagle Rd,Haverford,"Banks & Credit Unions, Financial Services",1.5,6,39.985661,-75.3148439
X_E7U2lVNEwbH_gpOBmAHQ,Cerveza Jack's,135 2nd Ave N,Nashville,"Nightlife, Restaurants, Bars, Mexican",4.0,182,36.162799,-86.776016
EYA514FX4H8MwvFjv2ORQA,Carsmetics,3990 Ulmerton Rd,Clearwater,"Body Shops, Automotive",4.5,30,27.8931855254,-82.6876049487
G4lRmwDHdvhZAhmtlsYYBw,Wendy's,741 Thompson Ln,Nashville,"Burgers, Restaurants, Fast Food",1.5,37,36.112075744,-86.7674462724
DTUfAthScapCGnOnnLUhPA,Stitchers' Dream,221 S Easton Rd,Glenside,"Art Classes, Shopping, Education, Arts & Crafts, Appliances & Repair, Knitting Supplies, Art Supplies, Local Services",3.5,9,40.0978388,-75.1558378
DcUDIlxFsvqPvFh8_lb4Sw,Lott's Service,"908 N Lenola Rd, Ste 3",Moorestown,"Gas Stations, Automotive, Towing",1.5,8,39.973753,-74.995949
zs4d4DqSp5zh3HGFh-PiiQ,Something Special,107 Heady Dr,Nashville,"Event Planning & Services, Caterers",2.5,21,36.0982798,-86.8714149
BxhkoR6cscJwwex8gx31OA,Bar-B-Cutie,1787 Gallatin Pike N,Madison,"Restaurants, Barbeque",3.5,40,36.296536,-86.700179
2oxrOO3c9_mQmqM9kwEm9Q,Total Access Urgent Care,2980 Dougherty Ferry Rd,Saint Louis,"Health & Medical, Urgent Care",3.5,6,38.568086,-90.475388
Ms5xG8i4p80KSMcF3tt4ug,Sal DeForte's Ristorante,1400 Parkway Ave,Ewing,"Italian, Restaurants",4.0,52,40.2668877,-74.8056572
yswijv6wP2fKbMqAiEZ0vw,Reno Bighorns,400 N Center St,Reno,"Active Life, Basketball Courts, Stadiums & Arenas, Arts & Entertainment, Professional Sports Teams",5.0,6,39.5309239,-119.8122604
m9ncuZp0nEVhIwu24G-HRw,CVS Pharmacy,2215 Shelby St,Indianapolis,"Pharmacy, Health & Medical, Convenience Stores, Drugstores, Food, Shopping",2.5,10,39.7371,-86.1391
QZU7TcrztBb3tXaPbVCkXg,805 Ink,1228 State St,Santa Barbara,"Beauty & Spas, Tattoo",4.5,68,34.4241297,-119.7053211
l6VYP8AxIoW6U52aDo8fXg,HMV Superstore,8882 170th Street,Edmonton,"Home & Garden, Music & DVDs, Fashion, Accessories, Shopping, Home Decor, Books, Mags, Music & Video, Video Game Stores",4.0,24,53.5114948,-113.6450474
wMAxTyExktVtfyqKAfApbA,Tuffy Tire & Auto Service Center,4353 Gunn Hwy,Tampa,"Oil Change Stations, Automotive, Tires, Auto Repair",4.0,16,28.0458684582,-82.515059
E-nhxuu3zbt02oCj_1AFng,Selah,"510 N 7th Ave, Ste 130",Tucson,"Waxing, Hair Removal, Skin Care, Eyelash Service, Beauty & Spas",5.0,60,32.2280919,-110.9698038
vvE3HVfxlx9UYctKPr0dbw,Inspired By Purpose Wellness Center & Yoga Studio,"2910 Mill St, Ste B",Reno,"Weight Loss Centers, Health & Medical, Life Coach, Meditation Centers, Professional Services, Yoga, Active Life, Fitness & Instruction, Trainers, Nutritionists",4.5,9,39.5174106,-119.7783471
JnbSkfsl_j2dUoHncBTonA,Collision XS,1416 Centreville Ave,Belleville,"Auto Repair, Body Shops, Automotive",4.5,6,38.5022786,-90.00616971
5BYQP7i7ckUlgSzX4Yhnmw,A-1 Expert Cleaning Services,34 Ring Ln,Levittown,"Home Cleaning, Home Services, Office Cleaning, Professional Services, Window Washing",5.0,5,40.1502639,-74.8448876
xAAhPuZ8FG6OlvAw5m1BVQ,Willard Park,1901 E Washington St,Indianapolis,"Active Life, Playgrounds, Parks, Swimming Pools",3.5,5,39.7667851,-86.12748
DfGNZQsCe9k2BxazCf0p6g,Reno Family Chiropractic,"2900 Clear Acre Ln, Ste B",Reno,"Health & Medical, Chiropractors",4.5,19,39.5576887,-119.791299
07JLsUInZr5OSiYH2XVi4g,Elegance African Hair Braiding,540 N 52nd St,Philadelphia,"Beauty & Spas, Hair Stylists, Hair Extensions, Hair Salons",2.0,8,39.9690954,-75.2255953
hPAmGKnDqummngSTOJN_8g,Timber Creek Park,236 Taylor Ave,Gloucester Township,"Dog Parks, Active Life, Parks",4.5,86,39.831468,-75.058986
ORL4JE6tz3rJxVqkdKfegA,Gaylord Opryland Resort & Convention Center,2800 Opryland Dr,Nashville,"Venues & Event Spaces, Performing Arts, Arts & Entertainment, Hotels & Travel, Food, Convenience Stores, American (New), Beauty & Spas, Restaurants, Museums, Event Planning & Services, Hotels, Cinema, Resorts, Day Spas",3.0,1639,36.2115923083,-86.6943191727
1GnJDrpp-jyDRCptavD9RQ,Rita's Italian Ice,5004 Pennell Rd,Aston,"Food, Ice Cream & Frozen Yogurt, Desserts, Shaved Ice",4.0,7,39.8649175,-75.4275762
jkY8aotwcAlSHCgoZrF49w,Bay Area Appliance,904 Clearwater Largo Rd N,Largo,"Home & Garden, Local Services, Appliances, Appliances & Repair, Shopping",1.0,5,27.9251193,-82.7959877
YD_eZ4TaFrHYRrJVzOXHfw,Passport Health,"1034 S Brentwood Blvd, Ste 710",Saint Louis,"Medical Centers, Health & Medical",1.5,11,38.6361966,-90.3457542
P10BsKUeoeCeVoK4BS2u0w,Trust Me BBQ,8624 US Hwy 301 S,Riverview,"Restaurants, Barbeque",4.0,29,27.8652573,-82.3260903
7Du9oW73YcYFmXdtU5aiSg,Kinjo's Japanese Restaurant,2875 Tyrone Blvd N,Saint Petersburg,"Japanese, Sushi Bars, Restaurants",3.5,17,27.7972626,-82.7339127
h_qlv6CIXGVurFOhFQ945w,Tim Hortons,17004 111 Avenue NW,Edmonton,"Coffee & Tea, Food",3.5,6,53.5599789914,-113.6162690363
QjV4v7q_pt7tt3K1US7IHg,PDQ Temple Terrace,5112 E Fowler Ave,Tampa,"Fast Food, Sandwiches, Chicken Shop, Restaurants",3.0,5,28.0548882706,-82.3995484
LGqiubTmpJ-A1L5n7dmc6g,Domino's Pizza,"1525 Lapalco Blvd, # A",Harvey,"Restaurants, Sandwiches, Pizza, Chicken Wings",1.5,14,29.8753202,-90.045817
FTFtoylMzkrzqNVSl-bkKw,Giant Food Stores,60 N 23rd St,Philadelphia,"Grocery, Food",4.0,19,39.9565280024,-75.178013742
59jkCUm4yHciKL1KW_1HJA,Roma Pizza & Italian Eatery,1103 Main St,Warrington,"Pizza, Restaurants",2.5,25,40.2295269733,-75.1310898382
AzwiKZjVqHOxLaYtPAx8lA,Target,2450 Shoppers Ln,Wyncote,"Shopping, Department Stores, Grocery, Fashion, Food, Electronics, Furniture Stores, Home & Garden",2.5,37,40.076229,-75.155305
yM8LlTInbQH4FwWC97lz6w,McDonald's,1919 S Jefferson,St. Louis,"Fast Food, Restaurants, Food, Burgers, Coffee & Tea",1.5,100,38.6124951839,-90.2219420671
tVdJ7CgBGAQ_nLomYXbB-Q,Cunningham Pest Control,"1125 W Chester Pike, Ste 178",Havertown,"Wildlife Control, Local Services, Pest Control",5.0,5,39.9727224,-75.3154587
x8KYhsxbufQiYIK-4MRzHQ,West Coast Roofing,910 S Santa Rita Ave,Tucson,"Apartments, Roofing, Real Estate, Home Services",2.0,13,32.2104465,-110.9535711
3S9GYtMOYhbZl4MMPOHT0Q,The Handlebar Boise,1519 W Main St,Boise,"Bars, Wine Bars, Nightlife, Beer Bar",4.5,34,43.62001,-116.21279
znL4YrNbA2uwOQ3CchkmEA,Seaview Condominiums,14700 Gulf Blvd,Madeira Beach,"Home Services, Vacation Rentals, Real Estate, Condominiums, Hotels & Travel",4.5,8,27.798503,-82.7987502
CtMEJxpVMlNzFpB4PtFjfA,Aussie Grill,25340 Sierra Center Blvd,Lutz,"Restaurants, American (New), Burgers, Fast Food, Steakhouses",4.0,75,28.192191035,-82.396367
O1oZpbZNDMH_gz8DhsZCdA,Wendy's,700 E. Hunting Park,Philadelphia,"Burgers, Restaurants, Fast Food",1.5,15,40.012141,-75.1150148
vPcfJ3rm3NpdqVDod2WxLA,China Pearl,2E Summit Sq Shopping Ctr,Langhorne,"Japanese, Chinese, Restaurants, Thai",1.5,27,40.2177843,-74.9265858
HI4_NqeHMJOnMoVFNxaFyA,1-Hour Auto Glass,"2292 W Magee Rd, Ste 270",Tucson,"Auto Glass Services, Automotive, Windshield Installation & Repair",3.5,21,32.3475108,-111.0165608
pmuuoDqNZp7518AUd-YmPA,Bagelicious - King Of Prussia,216 W Beidler Rd,King of Prussia,"Restaurants, Bakeries, Caterers, Bagels, Food, Event Planning & Services",3.5,60,40.1124813,-75.3799748
EDNYAyVc_WFhM3CD6QVD4A,Ottewell Animal Clinic,6142 90 Avenue NW,Edmonton,"Pets, Veterinarians",4.0,13,53.525585,-113.427076
tyJwgMRwo21wLUsga_RkQw,Blue Water Dental Care,1820 S Arlington Ave,Reno,"Endodontists, General Dentistry, Health & Medical, Cosmetic Dentists, Dentists",4.0,10,39.5062237,-119.8167371
2dlQX5sP9X6Dlm1MmNOlSw,ReAnimator Coffee,1523 E Susquehanna Ave,Philadelphia,"Food, Coffee & Tea",4.0,105,39.9764555,-75.1270254
IYlUaKC9nICjiWdk-ShPlg,Bub's Cafe,220 2nd St SW,Carmel,"Restaurants, Breakfast & Brunch",4.0,175,39.976614,-86.130124
8oi1Gm7XLyK31Y3N3Wp2Ig,A & A Complete Services,,Smithton,"Plumbing, Home Services",1.0,11,38.3935,-90.0107
hdRtVNk-G9Ep4eaHPKXmfA,Carpet One Floor & Home,11005 N Oracle Rd,Oro Valley,"Carpeting, Shopping, Home Services, Flooring, Rugs, Home & Garden",4.0,7,32.4058647729,-110.949274038
tSFXJ0GFl5iUdy021YgWLw,The Mad Griddle ,2127 E 10th St,Indianapolis,"Arts & Entertainment, Nightlife, Jazz & Blues, Restaurants, Pizza, Southern",5.0,7,39.781126,-86.1241235
UoKkgWmE9-c3wbWwO4VAVQ,Beaver Hill Condominium,309 Florence Ave,Jenkintown,"Real Estate, Apartments, Home Services",3.0,5,40.094306,-75.1352466
Nh1rc9aSeO-Y5lYmXVS6CA,Quality Inn Nashville Downtown - Stadium,303 Interstate Dr,Nashville,"Hotels & Travel, Event Planning & Services, Hotels",2.0,53,36.1688337591,-86.766910851
r_8FZXRkGoc5QNbTOAIftA,MDG Salon Studio,"355 Indiana Ave, Ste 100",Indianapolis,"Makeup Artists, Beauty & Spas, Hair Salons, Hair Removal, Eyelash Service",4.5,85,39.7725103235,-86.1626825258
ZU6NodDOWaabGkeNpOWdXw,530 Pub & Grill,530 Cleveland St,Clearwater,"American (Traditional), Restaurants, Burgers, Wraps, Sandwiches, Bars, Nightlife, Beer Bar",4.5,6,27.9657471097,-82.7989008
LVYAXWQB3t7tdwWteyjfhw,Option 1 Barber Shop,"5537 Sheldon Rd, Ste E",Tampa,"Barbers, Beauty & Spas",4.0,16,27.9987001903,-82.5822531301
mq5Z9X7yxgyApILQ11niNw,Wendy Warner- Medicine In Balance,"940 Town Center Dr, Ste F90",Langhorne,"Health & Medical, Doctors, Medical Centers, Local Services, Obstetricians & Gynecologists, Naturopathic/Holistic",3.0,7,40.1884442241,-74.8773210502
X0V_PdBTS_SwNxMY2795ZA,Toys R Us,5355 E Broadway Blvd,Tucson,"Toy Stores, Shopping",3.5,12,32.2226061,-110.877255
ONUZertKOOImiyQG66Z7Tg,Zakian Rug Cleaning,4930 Parkside Ave,Philadelphia,"Carpet Cleaning, Rugs, Shopping, Flooring, Local Services, Home Cleaning, Carpeting, Home & Garden, Home Services",3.5,26,39.9791075,-75.2177555
ULReFPrCIDRbGKwP3ZsHwg,Eddie's Southtown Donuts,4701 S Kingshighway Blvd,Saint Louis,"Donuts, Food",4.5,55,38.5857552,-90.2768425
25Uww0C0wvF9CZ_3B6vWtA,Enjoy The Mountain,1 Garden St,Santa Barbara,"Motorcycle Rental, Tours, Hiking, Mountain Biking, ATV Rentals/Tours, RV Rental, Hotels & Travel, Arts & Entertainment, Active Life",4.5,48,34.4143420056,-119.6873324599
rCoWa-C7Os51GjFkCnFlVw,Rite Aid,700 Haddonfield Berlin Rd S37,Voorhees,"Drugstores, Convenience Stores, Food, Shopping",4.5,6,39.852159,-74.98264
Dtuf4vD0znzwJW9vk3iTNw,Tomo Japanese Steakhouse and Sushi Bar,"7411 N Keystone Ave, Ste A",Indianapolis,"Steakhouses, Restaurants, Sushi Bars, Japanese",4.0,246,39.8887246,-86.1212129
8c0r7olQSYGcws0bTd3ikw,Zesty Tsunami,6614 Osteen Rd,New Port Richey,"Hawaiian, Food, Food Trucks, Street Vendors, Restaurants",4.0,5,28.2502179787,-82.6824409515
QU-X2Pijwd4SitfYXoZWMQ,Mason's Tree Service,,West Chester,"Home Services, Tree Services",3.0,9,39.9606643,-75.6054882
Ucl9Vo5lwrUmYbV8Dv8X5g,O'Briens Irish Pub,15435 N Dale Mabry Hwy,Tampa,"Bars, Pubs, Nightlife, Arts & Entertainment, Irish, Restaurants, Music Venues",4.0,108,28.09236,-82.500588
cSeA6pC9JUlGfz-RNfvnGw,Midwest RV Center,6200 Heimos Industrial Park Dr,St. Louis,"Trailer Dealers, Auto Parts & Supplies, Auto Repair, RV Repair, Local Services, Trailer Repair, RV Dealers, Shopping, Automotive, Propane, Outdoor Gear, Sporting Goods",4.0,33,38.4641559029,-90.3716691032
WdrpkH-q7FQY5nclmPfoDQ,"Daniel Colombo , MD",10581 Double R Blvd,Reno,"Doctors, Pediatricians, Health & Medical",4.0,7,39.4289221,-119.754142
xF9r1XbMvEOsJeHlmFhIvw,Weddings in Santa Barbara,263 Santa Monica Way,Santa Barbara,"Professional Services, Officiants, Event Planning & Services, Wedding Planning",5.0,13,34.3982982,-119.725931
6BF3eaIzHtoNHSxKTFnTyg,Mister B's Cigar Box,8123 E US Hwy 36,Avon,"Bars, Lounges, Nightlife, Pizza, Restaurants, Shopping, Tobacco Shops, Hookah Bars",3.5,13,39.7627741475,-86.3793863588
wjyUxHxkrvUvCOVqy4g_wg,Oscar's Cafe,7520 Natural Bridge Rd,Normandy,"Restaurants, American (Traditional)",4.0,11,38.704765,-90.299811
do6EpBc7ZUoaqdzuUuGFXA,Jim's Auto Detailing,729 W Lancaster Ave,Wayne,"Automotive, Auto Detailing, Car Wash, Auto Glass Services",4.5,8,40.0475203,-75.4091453
4IcB3QyMEA85UTWFKh9O9A,Eat Mah Taco @ Pal's Lounge,949 N Rendon St,New Orleans,"American (New), Food, Bars, Nightlife, Lounges, Restaurants",4.5,8,29.976762,-90.086423
_mf0QKI1Jlk8zRinr-56FA,Jaguar Nashville,3 Cadillac Dr,Brentwood,"Car Dealers, Automotive, Used Car Dealers, Auto Repair",5.0,10,36.0360616142,-86.7973280942
h_3oLlQ_CFohwlzsrSZ6xQ,The Waxing Queen Of Tucson,2919 E Broadway Blvd,Tucson,"Beauty & Spas, Hair Removal, Day Spas, Skin Care",4.5,17,32.2218494,-110.92845
Y6heWJJ9AmEL58fZwgi9YQ,Rosati's Pizza,2944 W Ina Rd,Tucson,"Sports Bars, Bars, Nightlife, Italian, Restaurants, Pizza",4.0,58,32.3387235226,-111.0303098651
bTve2mwLk5Zc01vRKqc2KQ,Red Hook Coffee & Tea,765 S 4th St,Philadelphia,"Restaurants, Breakfast & Brunch, Vegan, Bagels, Food, Coffee & Tea",4.5,183,39.9385518,-75.1496356
7FHjj04Wy2aqXl22NA_C0g,Aldi,9505 Uptown Dr,Indianapolis,"Grocery, Food",4.0,18,39.9250893,-86.0342432
TF6QZYUR5atqBEFnHP5bOw,The UPS Store,"748 S Meadows Pkwy, Ste A-9",Reno,"Local Services, Shipping Centers, Notaries, Printing Services, Mailbox Centers",3.5,27,39.4369354248,-119.7573776245
WveinioyAZg3dtt0zHsyHA,99 Cents Only Stores,7125 E Golf Links Rd,Tucson,"Discount Store, Shopping, Event Planning & Services, Party Supplies, Wholesalers, Professional Services",4.0,17,32.193246,-110.839627
D9Xez9uOSM4DgSjSTywq7w,King of Jewelers,737 Samson St,Philadelphia,"Shopping, Jewelry",4.0,5,39.9489024,-75.153854
6czqMScx8MRDirv7fxX7pw,Frankie's Fruit Bar,205 E Moana Ln,Reno,"Specialty Food, Food, Shaved Ice, Juice Bars & Smoothies, Fruits & Veggies",4.5,34,39.4928018965,-119.7929971762
bi3SICnYEuFC7Cihyqz8Nw,Thach Used Tires,4916 Causeway Blvd,Tampa,"Tires, Automotive",5.0,5,27.9232395,-82.402873
xbRbvXSAVZBEwaUUn3mzbg,Lee Roy Selmon's,14457 N Dale Mabry Hwy,Tampa,"Salad, Restaurants, Burgers, Soul Food",3.5,42,28.0787347875,-82.5063104158
qb5pyP6XOS8K2uuC4eQHmQ,Union on Fletcher,3600 East Fletcher Ave,Tampa,"Home Services, Real Estate, Apartments",2.5,8,28.0699667,-82.4187315
CWE-NfyMgi28ePUiansSdQ,Jim's Appliance & Furniture,1115 Lusk St,Boise,"Appliances, Mattresses, Shopping, Home & Garden",3.5,24,43.6072576,-116.2127303
uDQgmudYDKiB6n4vwbEeDg,Chrysalis,9040 Carothers Pkwy,Franklin,"Restaurants, Italian, Nightlife, Bars, Cocktail Bars, Tapas/Small Plates",4.5,112,35.9565328581,-86.8027199385
MyE_zdul_JO-dOHOug4GQQ,Watson Adventures Scavenger Hunts,,Philadelphia,"Local Flavor, Team Building Activities, Active Life, Arts & Entertainment, Event Planning & Services, Walking Tours, Scavenger Hunts, Museums, Hotels & Travel, Tours",3.0,8,40.1197128,-75.0097103
v5kwdvmg-J8g-ll0nkc3Sw,The Libertine Liquor Bar,38 E Washington St,Indianapolis,"Restaurants, Lounges, Bars, American (New), Nightlife",4.0,208,39.7672488945,-86.1567753553
8p9euqoMCbT4AIL_Fgqb0g,Ballistic Fabrication,2010 W McMillan St,Tuscon,"Machine Shops, Local Services, Automotive, Auto Parts & Supplies",4.0,5,32.2792548,-111.0095518
bqmX882_6AxVA_uHEQ70sQ,Shanghai Station,4002 Spruce St,Philadelphia,"Shanghainese, Restaurants, Sushi Bars, Szechuan, Sports Bars, Lounges, Asian Fusion, Thai, Karaoke, Chinese, Nightlife, Bars",4.0,46,39.9516153765,-75.2033457223
my0bmPD5dgDFE1ia__LNlw,Nails & Beauty Lounge,953 E Brandon Blvd,Brandon,"Beauty & Spas, Waxing, Nail Salons, Hair Removal",3.5,84,27.9371659,-82.2699586
8ThWgxiTB83nrIGbZQnNBg,Creature Comforts Pet Sitting,,Ardmore,"Pet Services, Pet Sitting, Pets",5.0,10,40.0021177,-75.3004009
TzrA1TsKMKbrZBkw3q6DEQ,Scout's Treat Truck,,Indianapolis,"Cupcakes, Street Vendors, Food Delivery Services, Food Trucks, Desserts, Food",4.5,20,39.904342,-86.0631561
Edg22x3CZkIv0GUib2oEFA,Mellow Mushroom,8227 Oak St,New Orleans,"Pizza, Restaurants, Bars, Nightlife, Sandwiches",3.5,149,29.9486236188,-90.1312502816
VVvUBlc_WIEb8obKGq39dA,Four Green Fields,"4100 George J Bean Pkwy, Airside E, Tampa International Airport",Tampa,"Irish Pub, Bars, Restaurants, Irish, Nightlife",4.5,39,27.9803985924,-82.5377866183
FR5xx5YEzxAnoMdqGl7vRQ,Anytime Fitness,2141 Caton St,New Orleans,"Fitness & Instruction, Gyms, Weight Loss Centers, Health & Medical, Trainers, Active Life",3.0,6,29.9991154,-90.0607732
py5aKmlTB2NarfsfcOpHOQ,Cafe Con Leche,4100 George J Bean Pkwy,Tampa,"Restaurants, Breakfast & Brunch, Coffee Roasteries, Coffee & Tea, Food",2.5,55,27.9767745,-82.5374233
jL_NufxqXi-BpW5uXKsPwQ,CVS Pharmacy,518 Port Royal Ave,Philadelphia,"Drugstores, Pharmacy, Health & Medical, Convenience Stores, Food, Shopping",3.0,11,40.0612774187,-75.2372046062
wZhGuW7vQpfhxeEvLHkTrA,Express Cafe,400 E Fairview Ave,Meridian,"Restaurants, Breakfast & Brunch",4.5,119,43.6196488,-116.3871392
vjLSYNGFkPu4Y5HKoJlzYg,Rancho 777,777 E 4th St,Reno,"Event Planning & Services, Hotels, Hotels & Travel",2.0,5,39.5323474847,-119.804255405
pIUQz-zGw-Nu_Pu-qoTGuw,Western Endocrine Associates,"6365 E Tanque Verde Rd, Ste 200",Tucson,"Health & Medical, Doctors, Endocrinologists, Internal Medicine, Dermatologists",2.0,15,32.2457767,-110.8573874
I3ZLcrGzj-QN5vFgaJFrAg,Golf Galaxy,470 Swedesford Rd,Berwyn,"Shopping, Fashion, Outdoor Gear, Active Life, Golf Lessons, Sporting Goods, Golf Equipment, Golf, Fitness & Instruction, Sports Wear",3.0,25,40.0676702282,-75.4496971643
Tm3QiAVLJAR2fEJK7APPPQ,City Fitness - Northern Liberties,200 Spring Garden St,Philadelphia,"Active Life, Fitness & Instruction, Trainers, Gyms",3.0,131,39.9603427,-75.141951
rJXa375PYt906DwptOOP3Q,Master Bait and Fishing Supplies,9735 W Hillsborough Ave,TAMPA,"Active Life, Shopping, Fishing, Hunting & Fishing Supplies, Sporting Goods",4.0,8,28.0022293,-82.5943283
YR0nwxBOKk6DiLHNItfsBQ,Boston Pizza,200 St. Albert Rd,St Albert,"Italian, Chicken Wings, Pizza, Restaurants",3.5,14,53.625071,-113.6166452
X4loIesbBkiTZLFstHv8Kw,Diagnostic Imaging Services,"4241 Veterans Memorial Blvd, Ste 100",Metairie,"Diagnostic Imaging, Diagnostic Services, Health & Medical, Medical Centers",3.5,10,30.0063304534,-90.1793702454
n8ecak12IF_jhnPNs37AZA,Baltic Bakery,2609 Edgemont St,Philadelphia,"Food, Bakeries, Restaurants",4.5,12,39.9768798,-75.1161695
jnyHs1ZXy9qIE2gORZBQMg,Style Lab For Men,3326 Magazine St,New Orleans,"Fashion, Men's Clothing, Shopping",4.0,6,29.9231001,-90.0883492
xloFoRiYlH4IKGz3FhTDpA,1-275 Rest Area Manatee County Mile 7,13018 Rest Area,Terra Ceia,"Hotels, Rest Stops, Event Planning & Services, Hotels & Travel",4.0,5,27.5843003458,-82.6139500829
s_lHc_CrkzOTY3k4VNtN8w,Indy Fuel,1202 E 38th St,Indianapolis,"Professional Sports Teams, Arts & Entertainment",4.0,28,39.827681,-86.135008
zzUxvYE-8Fj_dWqsPcagNg,The Cleaning Authority - Tucson,2140 S 4th Ave,Tucson,"Home Services, Professional Services, Home Cleaning, Office Cleaning",2.0,25,32.196817,-110.9656358
jcL_qaGJiappzpnn-ifSoA,Fat Jakks,10126 - 107 Avenue NW,Edmonton,"Chinese, Restaurants, Filipino",4.0,8,53.5515508,-113.4951554
rYOrSXy2I4BcxB7dhg29uA,Restoration Hardware,"2126 Abbott Martin Rd, Ste 265",Nashville,"Shopping, Furniture Stores, Home & Garden",3.5,71,36.107591,-86.813774
s-A1_pxGRYL2x4gONVzvFA,Easy Rider Repair,,Delaware County,"Mountain Biking, Bike Repair/Maintenance, Shopping, Bikes, Active Life, Local Services, Sporting Goods",5.0,13,39.9304833,-75.329557
_T0cPZE2ZJOTTlYYKMP64Q,Brown Sugar Bakery & Cafe,219 S 52nd St,Philadelphia,"Cupcakes, Caribbean, Restaurants, Trinidadian, Food, Bakeries, Cafes",4.5,66,39.9563959,-75.2253784
dJfkfBbJz7wi0RgW-ph_Eg,Sake House,5106 E Fowler Ave,Tampa,"Restaurants, Sushi Bars, Japanese",3.0,140,28.055212,-82.399374
VbItL6RDULtnw4YvB6EhVg,Jon's Bar & Grille,300 South St,Philadelphia,"Tex-Mex, Restaurants, American (Traditional), Nightlife, Bars",3.0,178,39.9412993,-75.1477446
OIsLivxtTTqH7i1QISoUOQ,Villas at San Dorado,10730 N Oracle Rd,Oro Valley,"Apartments, Real Estate, Home Services",4.0,7,32.398472,-110.9542611
W57cR9a7XP6RX56MSWHJJA,Las Margaritas,514 S Rampart St,New Orleans,"Mexican, Restaurants",3.5,58,29.95029,-90.074887
35dqrE4z9qWCtCn749oorg,Rippy's Central Pike Collision Repair,3539 Central Pike,Hermitage,"Body Shops, Automotive",2.5,5,36.1859086,-86.6274188
gYMOrd8xnZF-B61lwGiFUw,Inkorporated,,Brownsburg,"Beauty & Spas, Piercing, Tattoo",4.0,6,39.8433769,-86.3977735
6bFx8j2KqPfmT0XEUS1RMg,Center City Emergency Dentist,"1429 Walnut St, Fl 6",Philadelphia,"Orthodontists, Health & Medical, Oral Surgeons, General Dentistry, Dentists, Cosmetic Dentists",3.5,120,39.9497345,-75.165436
x7_p5O3ChQa7shdHCcLHZQ,Olivier's Creole Restaurant,204 Decatur St,New Orleans,"Event Planning & Services, Party & Event Planning, Restaurants, Seafood, Soul Food, Southern, Ethnic Food, Specialty Food, Venues & Event Spaces, Cajun/Creole, Food",3.5,172,29.9510658,-90.0715323
G2Byuh4EVeSnqqWBWtD7rg,Wissahickon Cyclery,7837 Germantown Ave,Philadelphia,"Bike Rentals, Active Life, Bikes, Shopping, Sporting Goods",4.5,18,40.0695589,-75.1995308
JF7iyI3wA_AKi_iXOKi0Qw,Parlor Suburban Square,30 Parking Plz,Ardmore,"Italian, Pizza, Gluten-Free, Restaurants, Bars, Wine Bars, Nightlife",3.5,61,40.008645,-75.288802
vSE6lkp5FBcttPxEbQ9XCw,Kim Kelly & Co Clinical Skin Care,"252 W Swamp Rd, Ste 56",Doylestown,"Health & Medical, Medical Spas, Beauty & Spas, Skin Care, Makeup Artists",5.0,7,40.3311267851,-75.1371342508
iolaqx0v6g-fymksGWIU9A,Camden Bay Apartments,11302 W Hillsborough Ave,Tampa,"Real Estate, Apartments, Home Services",3.5,53,28.0112177255,-82.6113298722
G89OuZ3sIEfOR5cXeDqNaA,Bulls Barbershop,10811 N 56th St,Temple Terrace,"Barbers, Beauty & Spas",5.0,5,28.0464757264,-82.3928064047
usv5G5cO314pPHRTGq2Eyw,Best Tours,,Philadelphia,"Tours, Walking Tours, Hotels & Travel, Food Tours",1.0,38,40.1197128,-75.0097103
gRHd5bRosRWQBckzPawf-w,Blue Wren Studio,"1043 Virginia Ave, Ste 214",Indianapolis,"Photography Stores & Services, Beauty & Spas, Hair Salons, Home & Garden, Art Galleries, Day Spas, Arts & Entertainment, Shopping",5.0,7,39.752691,-86.140975
xa6JYHDgVza7CuenKBJBHw,Taqueria El Sitio,3466 A Lebanon Pike,Hermitage,"Latin American, Mexican, Restaurants",4.5,8,36.191654,-86.6254189
1dSKEitDDgIkaApe6UNMSA,The Pepper Pott,4611 Alabama Ave,Nashville,"Caribbean, Food, Restaurants, Food Trucks",5.0,18,36.1530043,-86.8433279
rZw9O5lJ36m_mXeRKE4G9A,La Sponda,20 E Lancaster Ave,Downingtown,"Italian, Restaurants, Salad, Bars, Venues & Event Spaces, Wine Bars, Nightlife, Event Planning & Services",4.5,29,40.0062075104,-75.7044510304
dCITjr2RMTmrX33_eFaMKA,BurgerWorks,160 Broadway Boulevard,Sherwood Park,"Burgers, Restaurants",3.5,17,53.5426345,-113.3111322
CLEWowfkj-wKYJlQDqT1aw,Blow Bar Express Styling Salon,"310 S Dale Mabry Hwy, Ste 110",Tampa,"Makeup Artists, Blow Dry/Out Services, Beauty & Spas, Hair Salons, Nail Salons, Eyebrow Services",4.0,55,27.9419745389,-82.5053069603
YG0OOMLP3MWYPKHpkA_mew,S&K Salon,"8567 N Silverbell Rd, Ste 111",Tucson,"Men's Hair Salons, Waxing, Hair Salons, Skin Care, Hair Removal, Beauty & Spas",4.0,6,32.3622562294,-111.1197053374
Pr_Mlt9FqdcW7WCFGJmozA,The Cider Factory,420 S B St,Virginia City,"Italian, Seafood, American (Traditional), Steakhouses, Restaurants, Comfort Food",4.5,104,39.305224,-119.652596
-7GDqSUaXrpC8Ql7nDBxWA,B2 Bluefin,401 E City Ave,Bala Cynwyd,"Nightlife, Bars, Cocktail Bars, Japanese, Restaurants, Sushi Bars, Asian Fusion",4.0,92,40.0079839104,-75.2126064939
6I_DA3uqOox50rBvjrQ_-g,Aloft Philadelphia Airport,4301 Island Ave,Philadelphia,"Event Planning & Services, Hotels & Travel, Hotels, Venues & Event Spaces",3.0,175,39.8911246892,-75.2342512699
zn-WXkqHag5FSVc_LC9dEQ,Renee Hair Salon,1007 W Chester Pike,Havertown,"Beauty & Spas, Hair Salons",4.0,5,39.9722710087,-75.3138364272
IYJOfQ6eFVHKCfJck59YIw,Bob Kramer’s Marionnettes,4143 Laclede Ave,Saint Louis,"Performing Arts, Arts & Entertainment",4.0,5,38.6380462,-90.2480607
e8pMCk4bE0U4qk7z59Lxkg,Federal Donuts,2101 Pennsylvania Ave,Philadelphia,"Sandwiches, Chicken Wings, Restaurants, Donuts, Food",4.5,11,39.963042,-75.1741858944
qps-oF95uqPoV7fiXn-dpg,Bear's Skin Art Studio,11217 143 Street NW,Edmonton,"Beauty & Spas, Tattoo, Piercing",2.0,5,53.5612008627,-113.5670928251
Q2sKrIaEZsFN7VNjkibyfQ,Accurate Window & Screen,5700 N Nebraska Ave,Tampa,"Home Services, Windows Installation",3.5,7,27.9989575,-82.4514338
IAj1Lw3FAOY-yZn4IO7ElQ,Baum's Dancewear,1805 E Passyunk Ave,Philadelphia,"Arts & Crafts, Sports Wear, Costumes, Performing Arts, Adult, Shopping, Sporting Goods, Arts & Entertainment, Fashion",3.0,17,39.92745,-75.1660349
en_F2VgZPW1RCnWkPyCrhg,Belle Chic Salon,"11901 N 1st Ave, Ste 131",Oro Valley,"Nail Salons, Beauty & Spas, Hair Salons",4.5,19,32.4221017,-110.9623526
cEqDvn5VuX8nQ_vqs6_xog,Alex Smith Hardwood Flooring,,Downingtown,"Flooring, Home Services, Carpeting, Contractors, Refinishing Services",4.0,5,39.987801,-75.757578
aNLr1j_3CZ46rqiUeLaQ-A,Chinatown Market Shoe Repair And Tailor,143 N 11th St,Philadelphia,"Shoe Repair, Sewing & Alterations, Local Services",5.0,23,39.955126798,-75.1574422458
tuyCmcmm5Q-bc-9zV76xKA,Pho Friendly,729 Brunswick Ave,Trenton,"Thai, Vietnamese, Chinese, Restaurants",4.5,93,40.23547,-74.7532115132
96qKAK06EdkG6GPVxKDdTw,Goin' Postal Westhaven,"188 Front St, Ste 116, Westhaven Town Center",Franklin,"Shipping Centers, Notaries, Local Services, Printing Services, Mailbox Centers",3.5,16,35.9292046,-86.9195922
yZP6Z8sbDpkeXyjNMDiyDg,Guess - Walnut Street,1520 Walnut St,Philadelphia,"Men's Clothing, Women's Clothing, Children's Clothing, Fashion, Shopping, Accessories",3.5,9,39.949452,-75.1670279
kR4tXc1fLeR2QNu8cMZrEg,Bustleton Radiology Associates,9601 Bustleton Ave,Philadelphia,"Radiologists, Doctors, Health & Medical",2.0,13,40.0870701,-75.0353514
V-96iACFgPmVjjKACGxd7Q,Fusion Pizza & Grill,"1900 Grant Ave, Ste M-N",Philadelphia,"Ethnic Food, Specialty Food, Restaurants, Food, Pizza",2.5,6,40.0839955,-75.0354963
p184f-Zvf4ToPwLba0VS4A,Misto Diner,5413 Neshaminy Blvd,Bensalem,"Chinese, Restaurants, Japanese",3.5,26,40.1447023,-74.934106
WcSpc5mcfa7NUZ9GQgx0Tg,Endless Summer Tans,1708 E Speedway Blvd,Tucson,"Beauty & Spas, Eyelash Service, Skin Care, Tanning",4.5,9,32.2356889,-110.9464624
zVlhs7BVaouutt-rles-YA,Williams Sub Shop,3801 Tyrone Blvd N,Saint Petersburg,"Restaurants, Sandwiches",4.5,99,27.806517,-82.749065
1E9o1SNo7UTf1XHTFPv1_Q,Franklin Juice Co,"230 Franklin Rd, Ste 11W",Franklin,"Restaurants, Acai Bowls, Vegan, Organic Stores, Vegetarian, Food, Juice Bars & Smoothies",4.5,66,35.9326054453,-86.860662065
0CEUpFtaKhxbmrbSdP9MUQ,Acadia,824 S 8th St,Philadelphia,"Restaurants, Cajun/Creole, Southern, Nightlife, Cocktail Bars, Breakfast & Brunch, Seafood, Bars",4.0,79,39.9389483,-75.1564078
CPor0p2hvvHJJN4L0U_zEg,Ann Becnel Companion Dogs,6107 W End Blvd,New Orleans,"Pet Services, Pets, Pet Training",5.0,20,30.0017108,-90.1146572
f82dhKNiUXsDVPMLqKYiIQ,Sher-e-Punjab,853 East Grant Rd,Tucson,"Restaurants, Salad, Pakistani, Indian, Cocktail Bars, Food, Food Delivery Services, Soup, Halal, Bars, Nightlife",4.0,446,32.2509598946,-110.9591583204
FF45pKN_lzqG8Bqk-_HQvw,Go! Gyro! Go!,,Saint Louis,"Street Vendors, Food, Food Trucks, Greek, Food Stands, Restaurants, Mediterranean",4.5,49,38.5844866,-90.266699
GrzCVNDTRODqNez4zb4RLw,The Music Box Village,4557 N Rampart St,New Orleans,"Local Flavor, Public Art, Museums, Nightlife, Arts & Entertainment, Music Venues",5.0,22,29.9635911,-90.0292571
DeN5N6B78gysROm_Sq2kWA,Little V.I.P's Preschool,318 E Browning Rd,Bellmawr,"Education, Preschools, Local Services, Child Care & Day Care, Elementary Schools",3.5,7,39.8654263,-75.0680731
scychO44eMoosS9iEBV7xw,Foot Massage Reflexology,7061 E Tanque Verde Rd,Tucson,"Massage, Beauty & Spas",4.0,21,32.252342,-110.841512
IOZrqUQ2Jg6UeQ5CWpsmkg,Nesbit's Magazine Street Market,301 Magazine St,New Orleans,"Convenience Stores, Food, Grocery, Coffee & Tea, Beer, Wine & Spirits",5.0,7,29.9504773,-90.0679445
TEP-73fGvgSUmtQFaOTA_g,The Steak Out,3640 W Tangerine Rd,Marana,"Steakhouses, Burgers, Restaurants",2.5,30,32.424551,-111.042885
28FfSlW07o8GTwOrbfNMHA,Bronze Lady Home Furnishings,15222 Municipal Dr,Madeira Beach,"Home & Garden, Furniture Stores, Shopping",2.5,5,27.8037453386,-82.8031028436
Ir5Ts-NC7DDTL3XLizhV3g,City Center Park,415 Lincoln St,Greenwood,"Playgrounds, Kids Activities, Active Life, Parks, Basketball Courts",5.0,12,39.612805,-86.112796
nSyOBxBRMugT3sKeT4YWBg,South Cleaner & Tailor,6102 S MacDill Ave,Tampa,"Sewing & Alterations, Local Services, Dry Cleaning & Laundry, Laundry Services",3.5,9,27.8798076,-82.4936332
I0gSLthWBsiUPzBft_CZ9Q,Marino's Auto Repair,2028 S Bancroft St,Philadelphia,"Auto Repair, Automotive",4.5,15,39.9254629,-75.173622
NBgbL_KQTRRLQPQQtmUkYQ,Mr Wizard Worcester Car Wash,3008 W Germantown Pike,Norristown,"Car Wash, Automotive",4.0,7,40.1613222658,-75.3808923571
dhz3m3xUFy6-BrU9xTfkow,PAWS  Plaquemines Animal Welfare Society,455A F Edward Hebert Blvd,Belle Chasse,"Animal Shelters, Pet Adoption, Pets",3.5,5,29.8938336797,-89.9798587105
bDAlJYMIzwOewIThe2IZjQ,Domino's Pizza,4430 South Mann,Indianapolis,"Chicken Wings, Sandwiches, Restaurants, Pizza",4.0,12,39.699929,-86.2416313
b7YJrFZWZdI2C5-9nZvVdw,Saltwater Grill,710 S Carrollton Ave,New Orleans,"Specialty Food, Restaurants, Food, Seafood, Seafood Markets",2.5,34,29.944454,-90.133537
6WBHCXHfLAG26n0ALAkoPA,U-Haul of Somerdale,411 White Horse Pike,Somerdale,"Automotive, Propane, Movers, Self Storage, Towing, Home Services, Truck Rental, Local Services",1.5,11,39.8490746,-75.0228262
xvFV3ENVa_9POy_grBs03Q,Warminster Veterinary Hospital,405 York Rd,Warminster,"Pets, Veterinarians",4.0,12,40.2012588,-75.1005572
2FR-xWttfR8qaODqcuExvw,Pls Check Cashers,3563 N Stone Ave,Tucson,"Financial Services, Insurance, Check Cashing/Pay-day Loans, Auto Insurance, Automotive, Registration Services",2.0,5,32.2717394,-110.9723419
SGigkw0zqh4TTXferq3XGA,Sparkle Cupcake Company,321 Sam Ridley Pkwy W,Smyrna,"Food, Bakeries, Desserts",4.0,5,35.9873329,-86.5469148
x9xBKymj6CJ2WuCCFInb7g,Fine Wine & Good Spirits,"12 E Hinckley Ave, Ridley Pk",Chester,"Food, Beer, Wine & Spirits",3.5,8,39.8790789,-75.3227924
SRexiuEsx1d9-dZVUsssQA,Brandon Burgers,1513 W Brandon Blvd,Brandon,"Salad, Hot Dogs, Burgers, Restaurants, American (Traditional), Fast Food",3.5,24,27.9373704213,-82.3077001423
xJyp6RLqNRv3tSu6njPKxQ,World of Beer,"102 Main St, Ste 100",Exton,"Nightlife, Pubs, American (Traditional), Restaurants, Bars",3.0,208,40.0236651,-75.6291878
bwL2TymVrYekkkKztKyiwA,Bourgoyne Guest House,839 Bourbon St,New Orleans,"Guest Houses, Hotels & Travel",4.0,7,29.960205,-90.064396
-VBhLd8DAz2VyDF3YBMH4g,Heritage Hardwood Floors,4450 60th Ave N,Saint Petersburg,"Flooring, Refinishing Services, Home Services",4.0,11,27.82573,-82.694405
1P_mGUY1PyPq7_ZabrzpBw,Carmine's Steakhouse,20 S 4th St,Saint Louis,"Italian, Restaurants, Steakhouses",4.0,261,38.6243584,-90.1886849
mHDBZmEH0Er3184YS83_LQ,Splash Car Wash & Lube,802 W Bloomingdale Ave,Brandon,"Tires, Automotive, Auto Repair, Oil Change Stations, Auto Detailing, Car Wash",2.5,50,27.8939198,-82.2943716
XwoXi0M66RU6Gouq-DSDHw,G Peppers Grill & Tavern,8745 Gunn Hwy,Odessa,"Restaurants, Mexican, American (Traditional)",4.0,82,28.0921362,-82.5785736
1vmx7_L210UBbOWLzrhepQ,Chicago Music Store,45 S 6th Ave,Tucson,"Electronics, Musical Instruments & Teachers, Shopping",4.0,44,32.2213692,-110.9683558
ZiJfb924ewMO9S2f-9W9Pw,Advanced Towing & Recovery,1099 Menzler Rd,Nashville,"Towing, Automotive",4.0,15,36.1397600339,-86.7380914652
OfW-VK04qr7b7bPm5QbyLg,Taqueria Feliz,303 Horsham Rd,Horsham,"Mexican, Pizza, Restaurants",3.0,77,40.1807271,-75.1346993
dP_1jbKl47-9Ty83RyeJDA,Washington Memorial Chapel,RR 23,Valley Forge,"Churches, Religious Organizations",4.5,5,40.10001,-75.462631
Qa1YQzo00sm9O0JUlwdCQw,Taste of Nawlins,504 Madison St,New Orleans,"Historical Tours, Tours, Hotels & Travel, Food Tours, Walking Tours",4.0,178,29.9580151,-90.0618951
0DbIUh_Xuj6H5B_SF0RLCQ,Iguana's Mexican Restaurant,"680 E 56th St, Ste A",Brownsburg,"Restaurants, Mexican",4.0,74,39.8518617214,-86.3847577572
bSJczuohHVko33UT82hnfA,Blaze Pizza,611 O'keefe Ave,New Orleans,"Pizza, Fast Food, Gluten-Free, Restaurants, Salad",4.0,302,29.948395,-90.075281
7hSJSIBUP1UQncD4xWPDqg,The Delaware Contemporary,200 S Madison St,Wilmington,"Arts & Entertainment, Event Planning & Services, Venues & Event Spaces, Museums",4.5,11,39.7382891,-75.5601479
cSigjSbOfHR_mHGTCmJTaQ,Kids 'R' Kids of Waterset,6406 Covington Garden Dr,Apollo Beach,"Child Care & Day Care, Education, Local Services, Preschools",4.0,6,27.7705318,-82.3703483
PCM-vL-vRLJ4HB2OE8Nnbg,Baxter's Saloon & Grill,20 Liberty Blvd,Malvern,"Bars, Pubs, Nightlife, Restaurants, American (Traditional)",2.5,31,40.0536347,-75.526719
yooufdsf3eAVq_9RQNSDJA,Mazzoni Center,"1348 Bainbridge St, Fl 2",Philadelphia,"Local Services, Community Service/Non-Profit, Health & Medical, Doctors, Family Practice, Medical Centers, Counseling & Mental Health",3.0,46,39.9426271,-75.1650829
8YJtf5v76SIz-4udyF4YmA,The Hideout Coffee House,218 Oakfield Dr,Brandon,"Food, Coffee & Tea",4.5,22,27.9344684803,-82.2878021747
rmHgqdVkLsGN2byesWRo0w,Brewster's Pub,2825 Route 73 S,Maple Shade,"American (Traditional), Active Life, Nightlife, Bowling, Restaurants",3.5,12,39.9394973,-74.9743023
6zBCuzJwov08YisHZkfU2Q,Enterprise Rent-A-Car,9213 W Fairview Ave,Boise,"Car Rental, Hotels & Travel",4.0,13,43.6190157662,-116.2967492044
JfGfqCnk0-Tnf6PlahPUJQ,Burger Village,6187 Currents Drive NW,Edmonton,"Restaurants, Burgers",4.0,10,53.436403,-113.604288
aNXw3PkXVt8ANwLyCfcmpg,McDonald's,2333 Welsh Rd,Lansdale,"Restaurants, Fast Food, Burgers, Food, Coffee & Tea",1.5,17,40.2637063378,-75.3179157563
gbetDRjllP5cOxaWxFjGHA,Pretty Nails,5316 Little Rd,New Port Richey,"Beauty & Spas, Nail Salons",3.0,6,28.237112,-82.6680235
RI8tdJy90bfApk836eF-ag,Solid Wood Cabinets,421 W Germantown Pike,Plymouth Meeting,"Home & Garden, Countertop Installation, Cabinetry, Home Services, Kitchen & Bath, Shopping, Contractors",2.5,8,40.1124281,-75.2857653
vweEeZwiaRRWX2Cu9Iq66Q,Bodyworks Salon & Day Spa,5500 Gulf Blvd,St. Pete Beach,"Day Spas, Massage, Beauty & Spas",2.5,6,27.7305212,-82.7452183
GVqXNt0HKJLpciN9ePxnWw,Crown Fried Chicken,1128 S Broad St,Philadelphia,"Restaurants, Fast Food",2.5,16,39.9368911,-75.1672837
KUx_q3nzqUINYgUTrZc9OA,Pita Pit,845 E University Blvd,Tucson,"Sandwiches, Restaurants",3.0,9,32.2319918,-110.9584924
j-PaHu9iyJBlzKJZYN2smA,Snacks By The Pound,"107A East Glenside Ave, Ste 1a",Glenside,"Food, Desserts, Shopping, Specialty Food, Candy Stores, Chocolatiers & Shops",3.5,8,40.1001131,-75.1515328
Ot4bRWWO681vXZIgnLfjEA,Arizona Tile,756 E. Ft. Lowell,Tucson,"Shopping, Home Decor, Flooring, Home Services, Kitchen & Bath, Home & Garden, Building Supplies, Interior Design",4.5,16,32.2643502,-110.9593721
OURGUNuoVqPGxZTZsxZQ8w,Indianapolis Army Navy,6032 E 21st St,Indianapolis,"Fashion, Discount Store, Sporting Goods, Military Surplus, Outdoor Gear, Shopping, Hobby Shops, Uniforms",3.0,5,39.7970658,-86.0632112
VeqkfRUzZAKlQer3npXPdQ,New India's Kitchen,14222 Manchester Rd,Ballwin,"Restaurants, Indian, Buffets, Diners, Pakistani",4.0,130,38.5920571,-90.5035651
JwBTq6IOFH97b9Hr6RT7pw,Reinette Café & Patisserie,2890-8882 170 Street NW,Edmonton,"Food, Coffee & Tea, Bakeries, Restaurants, Cafes",3.0,5,53.5225968429,-113.61922974
dChRGpit9fM_kZK5pafNyA,The Love,130 S 18th St,Philadelphia,"Restaurants, American (New), Breakfast & Brunch, Burgers",4.0,618,39.9506555,-75.1708991
uyc-S7lauYjzouYQ2TM76A,Papa John's Pizza,9817 W Florissant Ave,Saint Louis,"Pizza, Restaurants",2.0,9,38.7461593,-90.2798145
gRw-rxLFeNzyqa6hKPXD1w,Heitz Optical,2415 Homer M Adams Pkwy,Alton,"Eyewear & Opticians, Sporting Goods, Shopping, Medical Supplies, Laser Eye Surgery/Lasik, Optometrists, Health & Medical, Outdoor Gear",4.0,5,38.918418,-90.151949
FJDvhCGIwKuohPOK7JfLuA,Key One,,Tucson,"Home Services, Keys & Locksmiths",5.0,73,32.2165669,-110.8195292
2_gRg3_oWK3GoiB-OpcDHA,CedarBrook Deli,24 N Rt 73,Cedarbrook,"Food, Convenience Stores, Restaurants, Food Delivery Services, Local Flavor, Delis",3.5,5,39.721471,-74.9016858
7qDAeIsMVj1McNktlICETw,Contempo Hair Salon,"4291 Shoal Line Blvd, Ste 3",Spring Hill,"Day Spas, Skin Care, Eyebrow Services, Hair Loss Centers, Barbers, Blow Dry/Out Services, Hair Stylists, Hair Salons, Beauty & Spas, Hair Removal, Waxing",4.0,7,28.4939582,-82.6501344
YE2TePip0TxcdquF5hGauQ,JoJo's Hot Dogs and BBQ,240 Longhollow Pike,Goodlettsville,"Barbeque, Restaurants, Hot Dogs",4.5,14,36.3260267,-86.7040631
nIn0fMn-SEjLdJ44SG4CKw,A Personal Touch Cleaning Service,,Villanova,"Carpet Cleaning, Local Services, Home Services, Home Cleaning, Window Washing, Professional Services, Pressure Washers, Office Cleaning",4.5,7,40.0468052,-75.3353875
-Ijm5ICZUZffTo3iumczrw,MedExpress Urgent Care,"10500 Ulmerton Rd, Ste 202",Largo,"Doctors, Health & Medical, Urgent Care, Walk-in Clinics, Medical Centers, Family Practice",2.5,39,27.892834976,-82.7845353864
KdkMXzeoqpfNsZd-_axoTQ,emPIEnada,3683 Kings Row,Reno,"Event Planning & Services, Restaurants, Empanadas, Caterers, Food, Desserts, Comfort Food, American (Traditional), Food Trucks",4.5,41,39.5428346,-119.8569115
0Xsmy6HtVVBlCbbMjRyzcg,Plaza Bowling,10418 118 Avenue NW,Edmonton,"Bowling, Active Life",4.5,19,53.570501,-113.500041
iBRXLFWD7PeSYDbKsd_JTw,Mai Thai Restaurant,875 E Bloomingdale Ave,Brandon,"Food, Ethnic Food, Specialty Food, Restaurants, Thai",4.5,27,27.8915738378,-82.2725105
3tX0CduxNIHgrxr6Toairw,The Home Depot,1315 US Hwy 19 N,Holiday,"Shopping, Hardware Stores, Appliances, Building Supplies, Home & Garden, Home Services, Nurseries & Gardening",3.5,17,28.1782261,-82.7424346
vFJIK-z3QWs-3XNjs1hcZQ,New Orleans Jazz Market,1436 Oretha Castle Haley Blvd,New Orleans,"Nightlife, Venues & Event Spaces, Performing Arts, Event Planning & Services, Jazz & Blues, Arts & Entertainment, Bars",4.0,31,29.9411590382,-90.0789941056
od6skmfXz9twktEAuJHEmw,Ryan Christopher,245 Woodbine Ave,Narberth,"American (New), Restaurants",4.0,120,40.0099504,-75.2591858
sUQ-OfJYSNfz-cimEjoaXQ,Soho Oasis Cafe,410 S Howard Ave,Tampa,"Restaurants, Middle Eastern",3.5,7,27.9402059,-82.4828837
5gLjr0BZzm6EY07bp7_LSA,Templet's Russell Barber Shop,143 Delaronde St,New Orleans,"Beauty & Spas, Barbers",5.0,7,29.9522516,-90.0545959
cDekcTE1qwpz8ROlYixhqg,Philly Homebrew Outlet East,1447 N American St,Philadelphia,"Shopping, Food, Arts & Entertainment, Wholesale Stores, Brewing Supplies, Beer, Wine & Spirits, Wineries",5.0,32,39.9736806,-75.1396479
5lcumCB7X0nH5PElagz1VA,Reid Park Mico's Corner Playground,900 S Randolph Way,Tucson,"Active Life, Parks, Dog Parks",4.5,6,32.2097330593,-110.925515358
j9Kaj_6tSeXmVMYCgZithg,Noble Crust,28330 Paseo Dr,Wesley Chapel,"Restaurants, Italian, Nightlife, Southern, Bars, Breakfast & Brunch, Pizza",4.5,496,28.188219,-82.347274
EIlFs8kybcG-l60GJjNUIA,Domino's Pizza,"3800 Tampa Rd, Ste 180",Oldsmar,"Pizza, Chicken Wings, Restaurants, Sandwiches",2.5,20,28.0420037,-82.6746125
SzHAnqwOuOmw0qh1d6ZAcQ,Cyclone Car Care,8254 Watson Rd,Saint Louis,"Auto Repair, Automotive",3.5,5,38.5662003,-90.3487106
z9wCTHYI2VZy9YIblwSsgg,The Silo Eatery Coffee Bakery,"9036 Brittany Way, Bldg 18",Tampa,"Coffee & Tea, Restaurants, Food, Cafes, Bakeries",4.0,5,27.9464963776,-82.3555628732
cl5NjtALgaX7E-WL2DtiYQ,Liberty City Roasters,222R US Hwy 13,Bristol,"Food, Wholesalers, Coffee Roasteries, Professional Services, Coffee & Tea",4.5,8,40.100524,-74.865196
csJKpjAqZu42-pPhFLfPLw,Seven Qi Spa,922 Canal St,New Orleans,"Beauty & Spas, Massage",3.5,10,29.9544867,-90.07162
HsibLfc2XD7Gh7Hbd1WfJQ,Anytime Fitness,"110 W Main St, Ste 170",Carmel,"Active Life, Gyms, Fitness & Instruction, Trainers",2.5,22,39.9791471518,-86.1285750488
_7ks3u-qZsOTKBrXKcA1Ow,Empire Beauty School,3810 E Southport Rd,Indianapolis,"Barbers, Education, Hair Salons, Cosmetology Schools, Specialty Schools, Beauty & Spas",2.5,14,39.6664705333,-86.1006689072
nnHHPz4SKmDGxod16WxDxQ,Dermatology Associates of Indiana,"8433 Harcourt Rd, Ste 310",Indianapolis,"Health & Medical, Dermatologists, Doctors",3.0,6,39.9096672,-86.1925912
8t6mbhBNAT027aeDQ4mR3A,Womens Health Partners,"10012 Kennerly Rd, Ste 405",Saint Louis,"Health & Medical, Obstetricians & Gynecologists, Doctors",2.5,8,38.5061431698,-90.3806634553
4xhGQGdGqU60BIznBjqnuA,California Tacos and Taproom,956 Embarcadero Del Norte,Isla Vista,"Mexican, Beer Bar, Bars, Sports Bars, Nightlife, Restaurants, Tacos",4.0,49,34.4115552,-119.8550772
gVh26yEPkXSoWbhs1p2kNA,Gotham Escape Room,"1425 Arch St, Level B",Philadelphia,"Active Life, Escape Games",4.5,23,39.955015,-75.1642969
juVJO2kMrHwCYXwQQmv1Tg,Sidekicks Pizza,1105 Shelby St,Indianapolis,"Sandwiches, Restaurants, Pizza, Salad",4.0,45,39.7520076,-86.1395724
pYC5fKcpj8GKjSAc7Sl3RQ,Main Exchange Barber Shop,3108 N Boundary Blvd,Tampa,"Barbers, Beauty & Spas",2.0,7,27.8623633,-82.4981215
IFDNP-n9bBN1egOsGADYYg,Elysian Fields Animal Clinic,4237 Elysian Fields Ave,New Orleans,"Pet Sitting, Veterinarians, Pet Services, Pet Groomers, Pets",4.5,7,30.0019130082,-90.0591484085
Rad7bl6MFOEemh41CdREMQ,Isla Vista Community Bike Center,6584 Madrid Rd,Isla Vista,"Community Service/Non-Profit, Shopping, Local Services, Bike Rentals, Bikes, Bike Repair/Maintenance, Active Life, Sporting Goods",5.0,6,34.4126811,-119.8575491
f55CXbSB-F8AZXNumZZlcA,Sonny's Phat Smoke,1350 Stardust St,Reno,"Shopping, Vape Shops, Head Shops, Tobacco Shops",4.0,11,39.5282020569,-119.8347167969
Rz0KfP7YAZV_yQE8uIB0fg,El Sabor Boricua,11612 N Nebraska Ave,Tampa,"Puerto Rican, Caribbean, Latin American, Restaurants",5.0,6,28.0535153,-82.4534422
QWqKTWQ2OiDgo3dzNkpung,Jong Ka Jib,6600 N 5th St,Philadelphia,"Korean, Restaurants",4.5,351,40.0520643,-75.1273939
FAWhZ5nasogf2oG_9h7yjg,Storage of America,7339 E Washington St,Indianapolis,"Self Storage, Local Services",3.5,5,39.771607,-86.038287
HPpKVvBT-2EeWNdy9cIjqA,Bus Depot Discount VW Parts,4801 Gravel Pike,Perkiomenville,"Auto Parts & Supplies, Automotive",1.5,20,40.3263279,-75.4768237
JgORpZ2kB8DG2MECu7jvkQ,Tat Starz,"1418 N Clairborne Ave, Ste 5",New Orleans,"Arts & Entertainment, Shopping, Art Galleries, Piercing, Tattoo, Beauty & Spas",4.5,19,29.9695644,-90.067925
CsjKkpApaYJDd5woO9sP4w,Petco,11147 Park Blvd,Seminole,"Pets, Pet Groomers, Pet Training, Pet Services, Pet Stores",3.0,20,27.844945,-82.792501
gTwgRz52imtyggXCrH2Xng,Domain Home Accessories & Gallery,3129 Beach Blvd S,Gulfport,"Arts & Crafts, Art Galleries, Arts & Entertainment, Shopping",3.0,6,27.7379882,-82.7080321
Wt1W6qwCvna1KzIuJRJbwA,Tokyo Mandarin,370 Delsea Dr N,Glassboro,"Japanese, Restaurants, Sushi Bars, Chinese",4.0,88,39.7119376,-75.1109667
KNfqu3kNwn6eDMJjP0cNcg,Dental Care at Quail Hollow,28385 State Road 54,Wesley Chapel,"General Dentistry, Dentists, Health & Medical",3.0,9,28.2375794,-82.3471278
TO5-F6Rgt-_sYvRT9Cta-w,Apple Barn Cider Bar and General Store,109 Opry Mills Dr,Nashville,"Home & Garden, Kitchen & Bath, Shopping, Specialty Food, Food, Candy Stores",4.0,5,36.203404,-86.694768
L2TIgbnlsqRtqDU3FuW7lw,Coliseum Ballroom,535 4th Ave N,Saint Petersburg,"Event Planning & Services, Venues & Event Spaces",4.0,7,27.776811,-82.641157
REuCtUZ2MeehpDipAKBSmQ,Lens Crafters,2416 W Brandon Blvd,Brandon,"Eyewear & Opticians, Shopping, Health & Medical, Optometrists",4.0,6,27.9404107,-82.3217459
eJ77e9lGxY3ArzaoDbHhYw,Paddy Whacks Irish Sports Pub - South Street,150 South St,Philadelphia,"Bars, Nightlife, Pubs",2.5,161,39.9410539,-75.1454627
2M4pYfuivdluXyBOP7IDQw,Look Hair Care Studio,5200 Gainor Rd,Philadelphia,"Shopping, Hair Salons, Professional Services, Beauty & Spas, Cosmetics & Beauty Supply",5.0,5,39.9894332886,-75.2290420532
fNssGWMjae-SUzyyGblspQ,Apron,47 E Kings Hwy,Haddonfield,"Caterers, Event Planning & Services, Sandwiches, Restaurants",4.5,24,39.8971069811,-75.0342256956
c16lBET8GKbGZY6Aegm_2Q,L'Occitane en Provence,"2223 N West Shore Blvd, #160",Tampa,"Beauty & Spas, Shopping, Cosmetics & Beauty Supply, Skin Care",2.5,6,27.9646718,-82.5206425
QU6xxKwHXR6xQ5oi2yIKLw,Bulk Barn,8069 104 Street NW,Edmonton,"Grocery, Food, Wholesale Stores, Fashion, Shopping, Department Stores",4.0,33,53.517033,-113.496687
Vk3Up8OlB8h2ygVlvm8tBQ,Arcadia Landscape,2002 E 13th St,Tucson,"Masonry/Concrete, Gardeners, Tree Services, Landscape Architects, Landscaping, Irrigation, Shopping, Nurseries & Gardening, Home & Garden, Home Services",3.0,5,32.2185242,-110.9422112
TGr9-KKNk_o7HzqvtlKomQ,Window World of Philadelphia,253 Horsham Rd,Horsham,"Windows Installation, Home Services, Door Sales/Installation, Shutters, Siding",3.0,12,40.1794012,-75.1311418
kwQzVF5GP8DzdyBavvhIaQ,Fisherman's Cove Seafood,3201 Williams Blvd,Kenner,"Seafood Markets, Seafood, Specialty Food, Food, Restaurants",4.0,91,30.0144336,-90.2402643
9X1_a2DQwBtXza-U1CfA1g,Century Auto Body,108 Bala Ave,Bala Cynwyd,"Automotive, Auto Repair",4.0,13,40.0035262,-75.2315294
0Up4mOWP588Leb_dqoDiYQ,Rogers & Hollands® Jewelers,18 S County Center Way,St. Louis,"Watches, Jewelry Repair, Local Services, Shopping, Jewelry, Bridal",4.0,7,38.5062356465,-90.3315210422
wFXwmrlV8TiBS4Ac2-W_9g,MOSI Food Truck Rally,4801 East Fowler Ave,Tampa,"Festivals, Arts & Entertainment, Local Flavor, Restaurants, Food Stands",3.5,10,28.0536294,-82.4044188
ifjluUv4VASwmFqEp8cWlQ,Marty's Pizza,2733 De La Vina St,Santa Barbara,"Pizza, Restaurants",4.0,64,34.4362361,-119.7261474
bNJSy64VXxQ3RZ8tNpM-fA,Parasailing The Pass,12754 Kingfish Dr,Treasure Island,"Active Life, Parasailing, Beaches, Boating",5.0,16,27.7823648981,-82.7816953479
9RoAU2wAlH63Non9qrx3xQ,Gary's World of Wellness,4 W Mount Kirk Ave,Norristown,"Fitness & Instruction, Food, Shopping, Health & Medical, Beauty & Spas, Cosmetics & Beauty Supply, Active Life, Yoga, Specialty Food, Health Markets, Vitamins & Supplements",4.0,13,40.154956,-75.4013789
MlEhwiOJpKe7VuO-IDCZqg,Azure Hair Studio,1519 W Grove St,Boise,"Eyebrow Services, Hair Salons, Makeup Artists, Beauty & Spas",4.5,9,43.6192496,-116.2135189
bPPy7yNFfb-6N_bHkn1qAw,Taste of the Caribbean,,Indianapolis,"Restaurants, Caribbean, Food Trucks, Food",3.0,17,39.7733919,-86.0860599
i_cFU5_dQexbjJA9rmf_WA,Marcie Blaine,108 S 13th St,Philadelphia,"Desserts, Specialty Food, Food, Chocolatiers & Shops",3.5,8,39.950036,-75.162158
tUl_Lq8dM3T-NnM-u3szSg,Damaso Painting,,Philadelphia,"Carpenters, Pressure Washers, Wallpapering, Home Services, Painters",5.0,7,40.0149445,-75.0903154
bTC3m_GPWBp92Y5TTReyTA,Taco Truck Stl,2737 Cherokee,Saint Louis,"Food, Mexican, Restaurants, Food Trucks",2.5,10,38.5939549,-90.2291931
Z3EIfrkSmOmE4hnc1BRo5w,JCPenney,3301 Veterans Memorial Blvd,Metairie,"Baby Gear & Furniture, Fashion, Appliances, Women's Clothing, Shopping, Shopping Centers, Department Stores, Children's Clothing, Home & Garden, Men's Clothing",3.0,23,30.006267,-90.158554
wQjhFPMKwN_z85aPEn6V4Q,Thai Tanic,202 Market Pl,Montgomeryville,"Restaurants, Thai, Food, Specialty Food, Ethnic Food",3.0,8,40.2501841838,-75.2433013916
516L9-ZWyqVgzqjP5uW7Jg,The Corner Cafe and Deli,"100 S Ashley Dr, Ste 220",Tampa,"Sandwiches, Cafes, Burgers, Food, Restaurants",4.0,6,27.9444574,-82.4578244
KDcHC6Es_jv4tloj0NP6gA,Family Air,2021 E 12th St,Tucson,"Home Services, Heating & Air Conditioning/HVAC",4.5,116,32.2201995,-110.9415829
7mpYTDb24SywNMRn3yeakQ,The Twisted Tail,509 S 2nd St,Philadelphia,"Event Planning & Services, Whiskey Bars, American (New), American (Traditional), Venues & Event Spaces, Bars, Nightlife, Restaurants",4.0,604,39.9418766,-75.1451988
_WRe3ql2DI_h3htr77Siew,The Office,248 W 1st St,Reno,"Nightlife, Lounges, Bars",5.0,7,39.524816,-119.8160819
NpglDX_FUp3ybEzbBp4qhw,Summer Palace Chinese Restaurant,13399 Olive Blvd,Chesterfield,"Restaurants, Chinese",2.5,9,38.6811546,-90.496384
iEC0VzHM2hQ13wM7c0QwgQ,Metro Diner,2390 E Lincoln Hwy,Langhorne,"American (Traditional), Restaurants, Diners, Breakfast & Brunch",3.5,56,40.180187,-74.87527
34YgAnnZAPOeu8E-6IESJQ,Think Box Photography,,Boise,"Session Photography, Photographers, Pets, Pet Services, Event Planning & Services, Pet Photography, Real Estate Services, Real Estate Photography, Event Photography, Real Estate, Home Services",5.0,14,43.6320897,-116.2863998
dK_qONtd5z73i6fQ1BTrTA,Draino,2700 S Marshal,Philadelphia,"Plumbing, Home Services",3.0,10,39.9150107,-75.1585852
_raU4FUxWzx30V6DCDSKiA,Fleet Feet Sports,504 Old Smizer Mill Rd,Fenton,"Sporting Goods, Shoe Stores, Shopping, Fashion",5.0,8,38.5147339,-90.4494905
OlD8UoHqrKnLoZUFxuas_w,The Hip Hop Sandwich Shop,10470 Northcliffe Blvd,Spring Hill,"Sandwiches, Restaurants",2.5,5,28.4934721999,-82.546930168
C43IEVBroD_3YiumPPLLdQ,Half Price Books,4709 E 82nd St,Indianapolis,"Books, Mags, Music & Video, Comic Books, Shopping, Bookstores",4.0,48,39.9048037,-86.0898087
xDEee0p41GueCDN0EAp-YA,Phone Repair Philly - Center City,"1528 Walnut St, Ste 1200",Philadelphia,"Shopping, Electronics Repair, Local Services, IT Services & Computer Repair, Mobile Phone Repair, Mobile Phone Accessories, Mobile Phones",4.5,106,39.949485,-75.1673521
eq4xYdVExp3jLYAZ71uvPA,Fetch Academy & Dog Resort,"4340 W 96th St, Ste 100",Indianapolis,"Pet Groomers, Pet Sitting, Pets, Pet Services, Pet Training",3.5,10,39.926237738,-86.2348430873
LFPJXiuM357JZ-d0vv6yxw,Wildout Animal & Pest Removal Tampa,13815 Cypress Village Cir,Tampa,"Pest Control, Wildlife Control, Local Services, Gutter Services, Insulation Installation, Home Services",5.0,8,28.0720088,-82.5109518
NIV7uxsE8rn8cB1t-FsJHg,Saint Marys Medical Group,6225 Sharlands Ave,Reno,"Health & Medical, Urgent Care, Doctors",2.5,26,39.51769,-119.882714
qsCLpTsXayYMJ3-lJj_fyA,Pretty In Paint,18841 State Rd 54,Lutz,"Home Decor, Arts & Crafts, Kids Activities, Party & Event Planning, Active Life, Home & Garden, Event Planning & Services, Shopping",4.5,8,28.1943032,-82.4986764
D7z_V6E8cxXghSRcHAmUPg,La Bella China Restaurant,5680 S 12th Ave,Tucson,"Restaurants, Chinese",4.0,92,32.149473,-110.9781864
u4cktT_mzitYexUsr_vKsw,Digestive Diseases Associates of Tampa Bay,876 S Parsons Ave,Brandon,"Doctors, Health & Medical",2.0,11,27.9263727,-82.2859355
uW2oyOCEN3RgS7j2MfUIkg,The Bearded Lady Barbershop,2122 Magazine St,New Orleans,"Barbers, Beauty & Spas",4.5,46,29.9297373,-90.0761184
gb7JjRJtzWDsIWpJihZhBQ,McDonald's,417 N Broadway,Pennsville,"Food, Burgers, Restaurants, Coffee & Tea, Fast Food",2.0,20,39.6773020944,-75.4953995347
JPm93BlP-UHYPqFgK66JUw,Local Links,533 Station Ave,Haddon Heights,"Coffee & Tea, Restaurants, American (New), Food, Cafes, Breakfast & Brunch",4.5,70,39.8826936,-75.0583844
c9xE6CyePzE1gONFxpTJWw,Appliance Center,14012 N Florida Ave,Tampa,"Appliances & Repair, Local Services",4.5,11,28.0745649,-82.4599126
Xj0SIY3dprQ4ZZ0lz8YmGw,Sam's Plaza Shoe Repair,833 W Trenton Ave,Morrisville,"Local Services, Shoe Repair",4.5,9,40.2083354009,-74.7994599431
-DXNvQLhKwunHzg8OjkwXA,Northeast Auto Service,5155 E 65th St,Indianapolis,"Automotive, Auto Repair",4.5,54,39.875143,-86.0824
9kCutyCm1b8UuCRJF3Hw5A,Hertz Car Sales Indianapolis,9445 Haver Way,Indianapolis,"Automotive, Car Dealers",4.0,5,39.9253438,-86.1131045
oy-n3wkXeK6NPPKf3uRDTQ,Element Granite & Quartz,9750 Ashton Rd,Philadelphia,"Building Supplies, Shopping, Home & Garden, Home Decor, Home Services, Kitchen & Bath",4.5,18,40.0740089,-75.0131956
YZuoaOzD49ffP10PNf72nA,Peace of Mind Pub & Eatery,5500 Emerson Way,Indianapolis,"Pubs, Nightlife, Bars, Karaoke",2.0,8,39.8545563,-86.0868326
0WIlsDUUFuUKcDfJPaHRkA,Temple University Hospital ,3401 N Broad St,Philadelphia,"Hospitals, Health & Medical, Optometrists",2.0,67,40.0054237,-75.1507198
LdQUIP4_DPnJjq-Jf2_iNg,Boise 4x4,2760 S Featherly Way,Boise,"Auto Repair, Automotive, Auto Customization",5.0,7,43.5778152,-116.2877241
VeFfrEZ4iWaecrQg6Eq4cg,Cal Taco,"7320 Hollister Ave, Ste 1",Goleta,"Burgers, Cafes, Restaurants, Mexican, American (Traditional)",4.0,189,34.4305419,-119.882367
5LbiHS5xbeKUxd9ulIJz4w,Alic Motors,8904 West Fairview Ave,Boise,"Automotive, Car Dealers",2.5,20,43.6198388,-116.2930669
5iuo1kvv0XZMS0bUOoLz2Q,Bistro St. Tropez,"2400 Market St, Ste 427",Philadelphia,"Restaurants, French",3.5,163,39.9535919923,-75.1794226902
wwHswDU1t8T-8DAuKI3WdQ,Robbi's Custom Leather Goods,5104 Hampton Ave,Saint Louis,"Fashion, Sewing & Alterations, Leather Goods, Shopping, Furniture Reupholstery, Local Services, Shoe Repair",5.0,5,38.5849132,-90.2928102
Dl1alpHSJE4_iB0MGKRLXw,Johnny Rockets,5555 St. Louis Mills Blvd,Hazelwood,"Food, Fast Food, Sandwiches, Restaurants, American (Traditional), Burgers, Diners",2.0,6,38.7860901654,-90.4157752544
hsyIDX4x4ndYEvPoJF6_1g,Merendero La Catrachitas,5639 S Kingshighway Blvd,St. Louis,"Latin American, Honduran, Restaurants",4.5,22,38.5787245,-90.2822168
dk9zGFRJD2RXkHqAmFHOOA,Garage Pizza,2828 Canal St,New Orleans,"American (New), Sandwiches, Restaurants, Pizza",4.0,6,29.9668143,-90.0895672
GMVVFox3a0ROMdofd68mZw,Affordable Lock & Security Solutions - Tampa,13908 N Florida Ave,Tampa,"Keys & Locksmiths, Professional Services, Security Systems, Home Services, Security Services",4.0,12,28.07347,-82.459879
fCRGXD-TTLgNhaC4mVFFJQ,El Con Health & Wellness Center,3402 E Broadway Blvd,Tucson,"Beauty & Spas, Nutritionists, Medical Spas, Laser Hair Removal, Skin Care, Hair Removal, Health & Medical",4.5,18,32.2212624,-110.9200676
rR30b1XWbxZFFgLyGbfNAw,BODHI : Craft Bar + Thai Bistro,922 Massachusetts Ave,Indianapolis,"Gastropubs, Nightlife, Restaurants, Thai, Bars, Cocktail Bars",4.5,132,39.7802203,-86.1418027
g736EKijhJTrQbqoQAo9Tw,The Pet Trailer Mobile Grooming,6153 103rd Ave N,Pinellas Park,"Pet Services, Pet Groomers, Pet Sitting, Pets",5.0,6,27.865613,-82.7199909
4QFqi8w3rlZTcc5LXKyPJw,Chris' Pizza Village Pleasant View,"244 Village Sq Pleasent, Ste 100",View,"Chicken Wings, Italian, Salad, Pizza, Restaurants",4.0,31,36.387932573,-87.0147362534
XTWGzxXdQN0DVVH2GPGwiA,Days Inn by Wyndham Reno South,"5851 S Virginia St, No.101",Reno,"Hotels, Hotels & Travel, Event Planning & Services",2.0,27,39.472575,-119.788467
VKwPAl11iuM_YkEwm07sYQ,Hibiscus Spa,400 Mandalay Ave,Clearwater,"Day Spas, Beauty & Spas, Hair Salons",4.5,14,27.9788772,-82.8279609
iONfxRWQqA8pAPMZFNLaug,Nutrishop,2940 Providence Lakes Blvd,Brandon,"Weight Loss Centers, Food, Health Markets, Health & Medical, Specialty Food, Shopping, Vitamins & Supplements, Personal Shopping",4.0,9,27.9210171,-82.3272616
0HpYaBbRqaG1df4JckJoUw,Westchase Compounding Pharmacy,12617 Race Track Rd,Tampa,"Drugstores, Shopping",3.0,11,28.0662007,-82.6354932
Cyy0zZz5ixYjSX4o4sacpg,Lip Collision,320 Elm Ave,North Wales,"Body Shops, Automotive",5.0,8,40.2085934,-75.2826768
p79UR4tdHoJzmhwKmiXa2A,Sport Clips Haircuts of Springfield,400 S State Rd,Springfield,"Hair Salons, Barbers, Beauty & Spas, Men's Hair Salons",2.0,5,39.9386338,-75.3556319
qTjsoi0FCv93wxzl0puQSQ,Yi Fa Hair Salon,101 Fairfield Ave,Upper Darby,"Beauty & Spas, Hair Salons",4.5,6,39.9606936,-75.2628592
jfz_-ngCCAbKUziluLAgiw,Jaramillo Hair salon,104 E Gay St,West Chester,"Hair Salons, Hair Stylists, Beauty & Spas, Hair Removal, Eyelash Service, Nail Salons",4.0,5,39.9610226,-75.6037869
Q9nC1l2V5wDyJpVb50OyLg,Bucks-Mont Environmental,3417 Binny Rd,Doylestown,"Contractors, Home Services, Septic Services, Local Services",3.0,6,40.3296162,-75.0946266
wRBEBZ6TvMTuwosvBa72xQ,August Pearl Salon,"5511 Edmondson Pike, Ste 202",Nashville,"Hair Salons, Eyebrow Services, Waxing, Hair Extensions, Hair Stylists, Beauty & Spas, Hair Removal, Eyelash Service, Makeup Artists",4.5,20,36.0431449,-86.7447411
hE1ouPLiGQiAkiOacnZVLw,Nevada Towing,13855 Mount Anderson St,Reno,"Self Storage, Local Services, Automotive, Towing, Used Car Dealers, Roadside Assistance, Car Dealers",2.5,18,39.652461,-119.886915
lJfxS6RMzAQ7oy8F2vU3Pg,"C R Bhatia, DVM - Animal Clinic of Warrington",1352 Easton Rd,Warrington,"Pets, Veterinarians",4.5,9,40.250693877,-75.133774929
unkPNwxOxNQS5a5kPftLRA,Wentworth At West Clay,12880 University Crescent,Carmel,"Home Services, Real Estate, Apartments",2.5,5,39.9735828,-86.1990519
rrdSkNz4YG6eDgOq3ov0IQ,Thoroughbred Nissan,5163 E 22nd St,Tucson,"Automotive, Car Dealers, Auto Detailing, Auto Repair",3.5,92,32.207596,-110.881629
RsTF2skxLcp6qo9FdnA5PA,Pizza Hut,"16 Summit Sq, Store 2B, Route 413 & Doublewoods Road",Langhorne,"Italian, Restaurants, Fast Food, Chicken Wings, Pizza",1.5,18,40.21786,-74.9266344309
WZpCnvSQ-YGukju9r4Gd_A,Morales Landscapers,,Tucson,"Home Services, Tree Services, Junk Removal & Hauling, Local Services, Gardeners, Pressure Washers, Lawn Services, Landscaping",4.0,14,32.2680738,-110.9923904
PXI7kvSV-NvWcqbI9jlmtg,Best Western Cedar Park Inn,5116 Gateway Boulevard,Edmonton,"Hotels, Event Planning & Services, Hotels & Travel",3.0,17,53.4885913,-113.4935085
oBqjxbnNKILyCN1S8KKd_g,Cherry Blow Dry Bar,"210 Veterans Memorial Blvd, Ste B",Metairie,"Hair Salons, Makeup Artists, Blow Dry/Out Services, Hair Extensions, Beauty & Spas",3.5,14,29.999648,-90.125123
qKcEyi0idj7cTQYzbhuKkg,T-Mobile,314 S Henderson Rd,King of Prussia,"Mobile Phones, Shopping",2.5,5,40.0911599,-75.358973
uYBx50Yl_Jc-UYwFzudBsQ,Chew Doin Fried Chicken & Ramen,210 South Buchanan,Edwardsville,"Restaurants, Chicken Shop, Ramen, Japanese",3.0,10,38.8105909,-89.9524841
bchZXVE4feVx4Q5rhIRCGg,NY Bagel Cafe & Deli,"4514 B City Line Ave, Ste 220",Philadelphia,"Restaurants, Food, Bagels, Breakfast & Brunch, Coffee & Tea, Sandwiches, Delis, American (New)",3.0,52,40.0027825,-75.2222705
ith4RsN3YwQeE3WWQ3Af4w,Little Golden Goose,273 Cheney St,Reno,"Preschools, Education, Local Services, Child Care & Day Care, Elementary Schools",4.0,13,39.5185256,-119.8050589
0Ze7pcwjyauf6steWfpV7g,Hand Grenades To Go,717-799 Orleans St,New Orleans,"Bars, Local Flavor, Nightlife",3.5,17,29.9590929529,-90.0646781349
6MuGlWEZzKA2YtlY44Cksw,Pep Boys,20 N MacDade Blvd,Glenolden,"Auto Repair, Oil Change Stations, Auto Parts & Supplies, Tires, Automotive",2.5,17,39.9058765,-75.2917441
GpFRwCHN0RI8yFbcfXjfUg,V Sandwiches,10127 100A Street NW,Edmonton,"Vietnamese, Sandwiches, Restaurants",3.5,9,53.5417173,-113.4919398
cvrIE1rLPWk-Nxb_ZNv5lA,Candlewood Suites Tucson,1995 W River Rd,Tucson,"Party & Event Planning, Event Planning & Services, Venues & Event Spaces, Hotels & Travel, Hotels",4.5,29,32.303741804,-111.009323614
MDP8K2NzEnCibFHa9XujWw,Recreational Integrative Wellness Center,8003 Old York Rd,Elkins Park,"Shopping, Cannabis Collective, Cannabis Clinics, Cannabis Dispensaries, Health & Medical",4.0,18,40.0754184,-75.12843
QZLOM3T6xl7y1Q6zqoqHWg,Freddy's Frozen Custard & Steakburgers,5051 Edgmont Ave,Brookhaven,"Food, American (Traditional), Fast Food, Ice Cream & Frozen Yogurt, Burgers, Restaurants",3.5,26,39.879183,-75.396768
RZpEMG2ILk4bL3lH3ygRcw,Medford Village Car Care,11 N Main St,Medford,"Automotive, Auto Repair, Tires, Body Shops, Oil Change Stations, Towing",4.5,13,39.899973,-74.8231372
sXZGhglxCV7bO7mXe63A8Q,Epic Automotive,8601 Lackland Rd,St Louis,"Automotive, Auto Repair, Towing, Body Shops, Oil Change Stations, Auto Parts & Supplies, Tires",4.5,11,38.6997469,-90.3459907
PENtXTN19SYMMmFYYbA_Gw,Lubrication Corner,705 Columbia Ave,Franklin,"Oil Change Stations, Auto Repair, Automotive",5.0,5,35.9222345,-86.8717248
NNcqCDV6PHhDmKY8fO6S9g,Reeder's Auto Tint & Ceramic Coatings,"13355 Belcher Rd S, Ste 201",Largo,"Home Window Tinting, Car Window Tinting, Auto Detailing, Automotive, Vehicle Wraps, Home Services, Auto Glass Services, Auto Parts & Supplies",4.5,27,27.8928435529,-82.7453122398
9qxMhGWjGsuPUoQB3Y74Wg,McDonald's,1119 N Tucker,St. Louis,"Food, Restaurants, Coffee & Tea, Burgers, Fast Food",1.5,62,38.6369079537,-90.1954829934
AgbRp5NLsP1-J1fdg6Hdcw,Hands On Bicycle,1453 Gulf To Bay Blvd,Clearwater,"Sporting Goods, Bikes, Shopping",5.0,13,27.963,-82.777749
U8N-E8P9UOL_g0VxMCF3Mg,A.K. Lube & Auto,134 Petro Rd,Kingston Springs,"Automotive, Oil Change Stations, Transmission Repair, Auto Repair",5.0,5,36.0820981,-87.0932682
EcP5_cCKZqtRv_HJiALMtA,IU Health Urgent Care - Broadripple,1036 E 62nd St,Indianapolis,"Health & Medical, Urgent Care",2.0,24,39.870111,-86.140302
pJB63RaQpkTIKBhfTsLQQg,Biryani Hut,"14350 Mundy Dr, Ste  700",Noblesville,"Restaurants, Indian",4.0,83,39.9970877,-86.0023117
ufvaaDCkJj5pW4f7_DSN5w,Firestone Complete Auto Care,777 Middletown Blvd,Langhorne,"Auto Parts & Supplies, Automotive, Auto Repair, Tires, Oil Change Stations",3.0,13,40.18039,-74.87721
yUEeh9nwaycI6fKLruD_rQ,Silvio Hair Styling For Men,126 S 20th St,Philadelphia,"Barbers, Beauty & Spas",2.5,6,39.9511109,-75.1738185
5XelZjHymGydI5qKE8BOrA,Yellow Garage Antiques,66 S Main St,Mullica Hill,"Antiques, Shopping",4.5,7,39.730892,-75.2245237
Jov0PmO5g5lXGQyPiEZyXw,Colonial Frontiers,244 S Park Ave,Tucson,"Shopping, Furniture Stores, Antiques, Home & Garden",5.0,5,32.218948,-110.956573
ngvE1G9IckUO-ljZBFo23w,Mumbai Bistro,930 Locust St,Philadelphia,"Indian, Restaurants",4.0,217,39.947207,-75.1572515
46_2e1hnQ4csLrYnhn6bkw,Whetstone Tavern,700 S 5th St,Philadelphia,"Restaurants, Cocktail Bars, American (New), Desserts, American (Traditional), Nightlife, Bars, Food",4.0,166,39.9408715785,-75.1510468125
HqLOOpUax2dC8GYc0oqq2A,Family Carpets,,Palmyra,"Carpeting, Home Services",4.0,9,39.997699,-75.0245834
TGfPJHImEq6AQL9a1laxlg,Chick-fil-A,9711 Roosevelt Blvd,Philadelphia,"Event Planning & Services, American (Traditional), Restaurants, Food, Caterers, Fast Food, Chicken Shop, Breakfast & Brunch",4.0,80,40.08178,-75.0267907
xa28v84RtUPWQKuw_UQBXQ,The Main Lion Cat Grooming Salon,"21 Plank Ave, Ste 208",Paoli,"Veterinarians, Pet Stores, Pets, Pet Photography, Pet Services, Pet Sitting, Pet Groomers",4.0,31,40.042899,-75.488131
kxvOUehCtJAL2nYKkeiR-w,Incrediplex,6002 Sunnyside Rd,Indianapolis,"Specialty Schools, Education, Gyms, Sports Clubs, Arts & Entertainment, Venues & Event Spaces, Arcades, Event Planning & Services, Recreation Centers, Fitness & Instruction, Art Schools, Local Services, Child Care & Day Care, Active Life",4.0,33,39.8660830813,-85.9750978137
CPgWuWGZ4v2sZr5_-1kluw,Checkers,1208 N. Broad,Philadelphia,"Restaurants, Fast Food, Burgers",2.0,21,39.9719414,-75.159771
uU9h_l5WSTY8fKVU2nx2Cw,Foolish Pride Tattoo Company,3100 1st Ave N,St. Petersburg,"Beauty & Spas, Tattoo",4.5,36,27.7715736064,-82.6756190881
xvAkaDEOOUloROkX0j4C-w,Dwight's Auto Glass & Tint,"1431 W Valencia, Ste 121",Tucson,"Car Stereo Installation, Shopping, Electronics, Automotive, Car Window Tinting, Auto Glass Services, Auto Detailing",3.0,23,32.1329588,-110.9953214
5SV2YI6MBSOWaEwB8pBHtQ,Collective Concept,114 S 5th St,Boise,"Hair Salons, Beauty & Spas",5.0,9,43.613448,-116.1999702
gu2-TPPdyQyHl2CnPb7Xjg,4th Street Nails,745 S 4th St,Philadelphia,"Beauty & Spas, Nail Salons",4.0,44,39.9390124,-75.1496014
Eb8GseQXa1ZICrmCwbXmPQ,Yerli's Alterations & Tailoring,"5487 Meadowood Mall, Ste C131",Reno,"Women's Clothing, Bespoke Clothing, Sewing & Alterations, Shopping, Local Services, Laundry Services, Fashion, Dry Cleaning",5.0,12,39.4715307,-119.78243
O5Obr4roy3Fd-nQXkfk7TQ,Man of the Soil Landscape Builder,7925 N Oracle Rd,Oro Valley,"Landscaping, Home Services",4.0,9,32.3499855,-110.9770334
VCkSUsdL5P0p16DAPxVROA,NY Bagel & Deli Shop,1120 Buttonwood St,Philadelphia,"Bagels, Food, Breakfast & Brunch, Coffee & Tea, Restaurants, Burgers, Delis",4.0,31,39.960811,-75.1573883
dIpTuL2T1L98GQGU17IeSw,The Bricks,1327 E 7th Ave,Tampa,"Bars, Breakfast & Brunch, Restaurants, American (New), Coffee & Tea, Food, Nightlife, Vegetarian",4.0,548,27.9600238,-82.4444005
kKb00Oj96n5YYqMSDzx1IA,Lush Ink & Skin Studio,"577 South Meadows Pkwy, Ste 6, Reno Breathe Bar",Reno,"Weight Loss Centers, Health & Medical, Beauty & Spas, Eyelash Service, Skin Care, Permanent Makeup, Cryotherapy",5.0,6,39.4395089,-119.7600672
Oy7rU9H76PN1hsDU9EUt5g,Philadelphia Room Escape,"1520 Sansom St, Fl 2",Philadelphia,"Active Life, Event Planning & Services, Escape Games, Challenge Courses, Team Building Activities",4.5,31,39.9502871584,-75.1666990731
2ahg0y3bmn8gRo0aGrFiEQ,Wink Lash Studio + Bath Bar,"538 W Plumb Ln, Ste E",Reno,"Beauty & Spas, Eyelash Service",4.5,15,39.505012,-119.815995
XRkzSBTroG7kIdI7Z8ic6g,Piccadilly,"2222 Clearview Pkwy, Ste 107",Metairie,"Restaurants, Seafood, Breakfast & Brunch, American (Traditional)",3.0,51,29.994939,-90.18365
bf34LpGej_MZbOlAKB1beQ,Sherbrooke Liquor Store,11819 Saint Albert Trail NW,Edmonton,"Beer, Wine & Spirits, Food",4.5,77,53.5710863856,-113.548768193
4pS7qnjJ7_DCoJB-Enl7KA,Prop and Decor Outlet: The Tent Merchant Inc.,930 State St,Santa Barbara,"Shopping, Home & Garden, Home Decor, Props",4.0,5,34.4214452,-119.7014496
5VYkn3vm4teAiLVeuT89Qw,PalmerCash,361 N Steelhead Way,Boise,"Shopping, Fashion, Men's Clothing, Children's Clothing, Women's Clothing",2.0,6,43.6082983398,-116.2906438802
SoJwDKedR7SJh7-G69C38A,Hong Kong Sunny,334 W Bridge St,New Hope,"Chinese, Restaurants",3.0,18,40.3639078093,-74.9660219123
sKdF_rwYyLa2NM1dlG0-Sg,Riverwood Apartments,805 Kuenzli St,Reno,"Real Estate, Apartments, Home Services, Local Services, Self Storage",1.0,18,39.52862,-119.802018
X7FQ5k29A_RRYep7TOfjtw,"Dawna Ara, DACM, LAc","23 Hitchcock Way, Ste 110",Santa Barbara,"Health & Medical, Beauty & Spas, Skin Care, Acupuncture, Massage, Traditional Chinese Medicine",5.0,54,34.4392950745,-119.7443122433
8zsUZsQtRPHYW4gD5puiqQ,Valley Cleaners,"10603 Stead Blvd, Ste 3",Reno,"Dry Cleaning & Laundry, Local Services, Laundry Services",4.0,16,39.6260045,-119.8826598
FW1PXpUq-yOs-5O_gqz3AQ,Big Mike's BBQ,6901 Sheldon Rd,Tampa,"Restaurants, Barbeque",4.5,32,28.0114997,-82.5828401
dgMuYzYRXji7PGFmnUs3aw,Sign of the Arrow,9814 Clayton Rd,Saint Louis,"Arts & Crafts, Shopping",4.5,5,38.6378129,-90.390423
1tLrjXG-I9hkOoZxlbwDqw,Olde Black Horse,200 Fairfield Rd,Norristown,"American (Traditional), Bars, Breakfast & Brunch, Nightlife, Cocktail Bars, Restaurants, Hotels & Travel, Hotels, Event Planning & Services",4.0,9,40.1083808,-75.318943
SlLfWzeYOrVBxCd-0QILZQ,The Boiling House,"1990 Marlton Pike E, Ste 10",Cherry Hill,"Cajun/Creole, Seafood, Noodles, Restaurants",4.0,238,39.8996609,-74.9532997
adATTqggIQX5xxLDISkFTw,Just Churros,,Tucson,"Food Trucks, Restaurants, Caterers, Event Planning & Services, Food, Mexican, Spanish, Desserts",5.0,25,32.2712313189,-110.9920754497
pNu5bd9aL3jcJClfdQ86MQ,Momo's Ouzaria Taverna,630 N And S Rd,St Louis,"Mediterranean, Lounges, Bars, Nightlife, Restaurants, Greek",3.5,243,38.6603769097,-90.3371429443
bdfZdB2MTXlT6-RBjSIpQg,Pho Bistro,903 Embarcadero Del Norte,Isla Vista,"Food, Restaurants, Chinese, Bubble Tea, Vietnamese",3.0,184,34.4129345,-119.8555307
vxrGNnuEef7YCfB7mN08rA,Dunkin',8150 Bryan Dairy Rd,Pinellas Park,"Coffee & Tea, Donuts, Food",2.0,8,27.8718285,-82.7502853
1EokZOnCDkjv2VtPtplyHw,Reno Downtown Joint,27 4th St N,St Petersburg,"American (Traditional), Music Venues, Restaurants, Cocktail Bars, Burgers, Bars, American (New), Nightlife, Arts & Entertainment",4.0,10,27.7717231748,-82.6383055959
yuangT-PWlF-YRbgN6M02A,Jos A Bank,2223 S West Shore Blvd,Tampa,"Shoe Stores, Fashion, Shopping, Formal Wear, Accessories, Men's Clothing",2.0,9,27.964721464,-82.5198229405
ZpmSEd9N042IJanBiKlKiQ,Smoke & Thyme,701 W Fulton St,Boise,"American (New), Barbeque, Restaurants, Burgers, Sandwiches, Salad",4.0,19,43.6111922,-116.2062753
OYmwoFmoEIA0rx7jd6ZWsg,Tattoos by Taz,3767 Gen De Gaulle Dr,New Orleans,"Tattoo, Piercing, Beauty & Spas",4.0,10,30.0008418937,-90.0582931191
42OM20QndpmsOSY6ccudBA,Union Teller Delicatessen,401 Union St,Nashville,"Bagels, Restaurants, Caterers, Sandwiches, Event Planning & Services, Delis, Food",3.5,6,36.1648001,-86.7799287
lAd7PwbmfpirUngbb6uCiA,Studio 240,240 S Broad St,Woodbury,"Hair Extensions, Hair Salons, Hair Stylists, Beauty & Spas, Blow Dry/Out Services",5.0,7,39.8338475229,-75.1561730444
hx-qUirkgRqX2Bk8A2U0nA,Pima County Fair,11300 S Houghton Rd,Tucson,"Arts & Entertainment, Venues & Event Spaces, Event Planning & Services, Festivals",4.0,40,32.0482633,-110.7738958
D5DBDShzSVx_gQtdIbOqZg,Public Storage,7430 Madison Ave,Indianapolis,"Self Storage, Local Services",3.0,11,39.660383,-86.126028
TapXvuOEC3qGGmlf03INnA,Addendum,"800 South Rangeline Rd, Ste 270",Carmel,"Home Decor, Home & Garden, Gift Shops, Shopping, Flowers & Gifts",2.5,9,39.96917,-86.1273964
SwWfW3vBn5QkDE7T3urGAg,Persis Biryani Indian Grill,"630 S Mount Juliet Rd, Ste 310",Mount Juliet,"Indian, Restaurants",4.5,246,36.162142,-86.516006
1s-vqaaGLscl7h4XIDO7LQ,Brilliant Nail Spa,"4091 Mallory Ln, Ste 106",Franklin,"Beauty & Spas, Hair Removal, Skin Care, Waxing, Nail Salons",4.0,74,35.9326514238,-86.8246329642
W4rgF_1eKzFZiGUOsgbGMA,Amber Indian Restaurant,12510 N Meridian St,Carmel,"Pakistani, Indian, Restaurants",4.0,243,39.9710819,-86.1601728
yN6jZyG1G1FG_HCZQlJZ1g,City Barbeque,9367 Ambleside Dr,Fishers,"Restaurants, Caterers, Barbeque, American (Traditional), Event Planning & Services",4.0,188,39.979376,-86.001692
00szsg8vQy6yX5f-m9sI4A,None Such Farm Market,4458 York Rd,Buckingham,"Grocery, Food, Farmers Market",4.0,36,40.31862,-75.066274
WmnPtMtY0elYVStooCTfng,Barista Cafe,529 Cinnaminson Ave,Palmyra,"Breakfast & Brunch, Coffee & Tea, Sandwiches, Food, Restaurants, Cafes",4.5,12,40.0043533,-75.0222651
wCgIJhH_CTuwsSZPcafkng,Dunkin' Donuts,4225 S E St,Indianapolis,"Food, Donuts, Coffee & Tea",2.0,19,39.7038868163,-86.1483024479
wOUJ-duIHPdRiV0af9s0xA,Quality Inn & Suites,1000 Hershel Drive,Mt. Juliet,"Event Planning & Services, Hotels, Hotels & Travel",1.5,22,36.16979,-86.51527
PW5eZM5RAQEhy3wgovChhQ,Cafe Victoria's,325 N 12th St,Philadelphia,"Food, Cafes, Restaurants, Coffee & Tea, Breakfast & Brunch",3.0,29,39.958422,-75.158257
QTsscMMSMJbWGjGktvQwZA,Modern Printers,714 N Main St,Meridian,"Local Services, Printing Services",4.5,5,43.6105119,-116.3913359
jGewGnIYcf9LFBcR8lMC5g,Picasso Restaurant & Bar,36 W State St,Media,"Italian, Spanish, Restaurants, Food",3.0,34,39.9179115,-75.390854
quv6eMqyJ1NIkjPgIgS65g,Gasparilla Pirate Festival,Bayshore Blvd,Tampa,"Local Flavor, Arts & Entertainment, Festivals",4.5,31,27.9279550671,-82.4784045787
5whwQ1UnbkT2wwD8-08Rpw,Cole Brothers,711 Myatt Center Ln,Madison,"Automotive, Auto Parts & Supplies",4.0,13,36.2766423,-86.6885468
DwkUcTFaFhqcW-RDJ5rnNQ,Children's Dental And Orthodontic Associates,7847 Old York Rd,Elkins Park,"Orthodontists, Health & Medical, Pediatric Dentists, Dentists",2.5,6,40.0727142,-75.131515
d45ejuYD188Yzyxz6cCu-g,Mattress Firm West End Avenue,3009 W End Ave,Nashville,"Home & Garden, Home Decor, Mattresses, Shopping, Furniture Stores",4.5,6,36.1433929232,-86.8141224616
2TLNzc2WVzJMa-IRTYMINQ,Appreciate You Hair And Nails,4507 E 82nd St,Indianapolis,"Beauty & Spas, Hair Salons, Waxing, Nail Salons, Hair Removal",5.0,34,39.9056081,-86.0923487
FLsMpCzvopg6vl3atsKVmQ,Functional Life,"15 Village Square, Ste 1",New Hope,"Nutritionists, Weight Loss Centers, Health & Medical, Chiropractors, Active Life, Fitness & Instruction",5.0,5,40.3586874,-74.97572
-lVTNjVoTMOkD-eT--u0oA,El Rancho Nuevo,1644 Country Club Plaza Dr,Saint Charles,"Mexican, Restaurants",3.5,66,38.7687445,-90.5219795
Jft1PUUQGH4DoC2S1zsABg,Poppy's Ice Cream,"1515 E Judge Perez Dr, Ste 5",Chalmette,"Ice Cream & Frozen Yogurt, Food",4.5,6,29.9381313,-89.9492226
BQkH3UGGtXzU4IfZewaw_w,WobbeMassage,2940 Canal St,New Orleans,"Health & Medical, Beauty & Spas, Massage Therapy, Day Spas, Massage",5.0,30,29.9672924,-90.09063
K0nNsUGPoE7ezIXiBwxrFQ,Arhaus,4130 E 82nd St,Indianapolis,"Shopping, Furniture Stores, Rugs, Home & Garden, Home Decor",3.0,10,39.907554,-86.094345
jDCk9DEwSS_TamliID4QuQ,Norma's Sweets Bakery,3221 Georgia Ave,Kenner,"Bakeries, Imported Food, Food, Ethnic Food, Specialty Food",4.0,26,30.014963,-90.2391014
FbGjCCc7bbJVWq3Kt5lamQ,Ernie's Tours,"828 Bourbon St, Apt E",New Orleans,"Walking Tours, Tours, Hotels & Travel, Historical Tours",5.0,52,29.9599126,-90.064281
TCxvQgfBD6_JjOM3N1VPRA,High Ridge Family Diner,4560 Gravois Rd,High Ridge,"Diners, Restaurants",4.5,8,38.4863979071,-90.5041513042
6_Zf2QsRHCH1RhbzA9inyw,Starbucks,8602 Hillsborough Ave,Tampa,"Coffee & Tea, Food",3.0,56,27.9963703,-82.580954
cAUe8LFnDjii_sx_4fRMaA,Once Upon A Child - Reno,"5000 Smithridge Dr, Ste A21",Reno,"Fashion, Children's Clothing, Shopping",2.5,113,39.47842,-119.7887358038
lPPYZr1_jx0XeW-xR9WJtw,DOSC,"10190 - 104 Street NW, Main Floor",Edmonton,"Bars, Cocktail Bars, Coffee & Tea, Food, Restaurants, Cafes, Steakhouses, Nightlife, Tapas/Small Plates",4.0,87,53.5428720873,-113.4995122836
0sr1EyOc6Td1C-962QW88w,La Cucina Italian Eatery,1642 Butler Pike,Conshohocken,"Italian, American (Traditional), Pizza, Restaurants, Cheesesteaks",4.0,44,40.088398,-75.2926963
p3QzxYDXLs6AthCldH-_Og,James L Frank Door Service,6415 Wendell Dr,Wesley Chapel,"Contractors, Garage Door Services, Home Services",5.0,10,28.2505165,-82.3737262
SFKjUQ1gmfwm7cJhMCFmkA,ZigZag Scallop,4417 Calienta St,Hernando Beach,"Nightlife, Seafood, Bars, Restaurants, American (Traditional)",4.0,214,28.4977,-82.650015
GJpAeUSsPIsVK6_0Lfuekg,Auntie Anne's,8094 Citrus Park Town Center Mall,Tampa,"Pretzels, Shopping Centers, Food, Shopping, Bakeries",2.0,7,28.0686496,-82.5751466
frsWe9bmMOMIBOBNzsCTew,African Palace Bar And Grill,4005 7 Hills Dr,Florissant,"Restaurants, African, Caribbean",4.0,26,38.7790065,-90.2800209
-H6s1c2NRic5UKxXqi4FdQ,Bagelicious and More,1232 Kingsway Rd,Brandon,"Food, Breakfast & Brunch, Restaurants, Bagels, Coffee & Tea",3.5,7,27.9588017985,-82.2789713027
NQhyMw8SOU1HB-V9X52CTg,Champion Chevrolet - Service Department,800 Kietzke Ln,Reno,"Automotive, Auto Repair",3.0,45,39.518222529,-119.7877136963
VEbHYioBfoPiIOWntE_DBA,Tienda Ho,1105 State St,Santa Barbara,"Shopping, Women's Clothing, Jewelry, Fashion, Accessories",4.5,34,34.422317,-119.7036672
xwSWtJcQkzTF6HNm_IMgcg,Rusty's Pizza Parlor,270 Storke Rd,Goleta,"Chicken Wings, Salad, Restaurants, Pizza, Italian, Sandwiches",2.5,94,34.4290427,-119.8693616
Rm6DNK_kpJ55mai3bL4qTA,Divine Designs Floral & Tropicals,208 Oakfield Dr,Brandon,"Event Planning & Services, Wedding Planning, Florists, Shopping, Flowers & Gifts",4.0,6,27.9345506,-82.2874462
xY0jpu0zzGEBr-bGBdPs-w,University Crossings,3175 JFK Boulevard,Philadelphia,"Apartments, University Housing, Home Services, Real Estate, Property Management",1.0,15,39.95604,-75.187797
o9jFWOpK9ty5vZUQTE6z5w,B&M Hardwood Flooring,3112 Wolfe Rd,Tampa Bay,"Carpenters, Refinishing Services, Flooring, Home Services",4.0,8,27.971329,-82.7078619
